[
  {
    "url": "http://www.bfro.net/GDB/show_report.asp?id=14338",
    "source": "BFRO",
    "source_url": "http://www.bfro.net",
    "source_reference": "14338",
    "name": "Bigfoot Report Class A 1870",
    "class": "A",
    "location": "Stanislaus County",
    "coordinates": {
      "lat": 37.39555,
      "lng": -121.4871
    },
    "country": "us",
    "city": "Mount Hamilton",
    "state": "ca"
  },
  {
    "url": "http://www.bfro.net/GDB/show_report.asp?id=1689",
    "source": "BFRO",
    "source_url": "http://www.bfro.net",
    "source_reference": "1689",
    "name": "Bigfoot Report Class A 1941",
    "class": "A",
    "location": "Yakima County",
    "coordinates": {
      "lat": 46.24639,
      "lng": -120.8681
    },
    "country": "us",
    "city": "White Swan",
    "state": "wa"
  },
  {
    "url": "http://www.bfro.net/GDB/show_report.asp?id=4795",
    "source": "BFRO",
    "source_url": "http://www.bfro.net",
    "source_reference": "4795",
    "name": "Bigfoot Report Class A 1947/48",
    "class": "A",
    "location": "Putnam County",
    "coordinates": {
      "lat": 29.77295,
      "lng": -81.68295
    },
    "country": "us",
    "city": "Bostwick",
    "state": "fl"
  },
  {
    "url": "http://www.bfro.net/GDB/show_report.asp?id=1723",
    "source": "BFRO",
    "source_url": "http://www.bfro.net",
    "source_reference": "1723",
    "name": "Bigfoot Report Class A 1948",
    "class": "A",
    "location": "Clallam County",
    "coordinates": {
      "lat": 47.93722,
      "lng": -123.82
    },
    "country": "us",
    "city": "Port Angeles",
    "state": "wa"
  },
  {
    "url": "http://www.bfro.net/GDB/show_report.asp?id=7235",
    "source": "BFRO",
    "source_url": "http://www.bfro.net",
    "source_reference": "7235",
    "name": "Bigfoot Report Class A 1949",
    "class": "A",
    "location": "Madison County",
    "coordinates": {
      "lat": 34.7325,
      "lng": -86.52105
    },
    "country": "us",
    "city": "Normal",
    "state": "al"
  },
  {
    "url": "http://www.bfro.net/GDB/show_report.asp?id=8745",
    "source": "BFRO",
    "source_url": "http://www.bfro.net",
    "source_reference": "8745",
    "name": "Bigfoot Report Class A 1949",
    "class": "A",
    "location": "Coos County",
    "coordinates": {
      "lat": 43.2547,
      "lng": -124.0598
    },
    "country": "us",
    "city": "Fairview",
    "state": "or"
  },
  {
    "url": "http://www.bfro.net/GDB/show_report.asp?id=5678",
    "source": "BFRO",
    "source_url": "http://www.bfro.net",
    "source_reference": "5678",
    "name": "Bigfoot Report Class A 1950",
    "class": "A",
    "location": "Martin County",
    "coordinates": {
      "lat": 37.83777,
      "lng": -82.43635
    },
    "country": "us",
    "city": "Beauty",
    "state": "ky"
  },
  {
    "url": "http://www.bfro.net/GDB/show_report.asp?id=1339",
    "source": "BFRO",
    "source_url": "http://www.bfro.net",
    "source_reference": "1339",
    "name": "Bigfoot Report Class A 1950",
    "class": "A",
    "location": "Attala County",
    "coordinates": {
      "lat": 33.10925,
      "lng": -89.59135
    },
    "country": "us",
    "city": "Mc Adams",
    "state": "ms"
  },
  {
    "url": "http://www.bfro.net/GDB/show_report.asp?id=2155",
    "source": "BFRO",
    "source_url": "http://www.bfro.net",
    "source_reference": "2155",
    "name": "Bigfoot Report Class A 1951/2",
    "class": "A",
    "location": "Johnson County",
    "coordinates": {
      "lat": 37.77591,
      "lng": -82.74628
    },
    "country": "us",
    "city": "Van Lear",
    "state": "ky"
  },
  {
    "url": "http://www.bfro.net/GDB/show_report.asp?id=9245",
    "source": "BFRO",
    "source_url": "http://www.bfro.net",
    "source_reference": "9245",
    "name": "Bigfoot Report Class A 1953-1976",
    "class": "A",
    "location": "Pulaski County",
    "coordinates": {
      "lat": 41.062,
      "lng": -86.5945
    },
    "country": "us",
    "city": "Winamac",
    "state": "in"
  },
  {
    "url": "http://www.bfro.net/GDB/show_report.asp?id=14534",
    "source": "BFRO",
    "source_url": "http://www.bfro.net",
    "source_reference": "14534",
    "name": "Bigfoot Report Class A 1954-55",
    "class": "A",
    "location": "Chelan County",
    "coordinates": {
      "lat": 48.19923,
      "lng": -120.7772
    },
    "country": "us",
    "city": "Chelan",
    "state": "wa"
  },
  {
    "url": "http://www.bfro.net/GDB/show_report.asp?id=13034",
    "source": "BFRO",
    "source_url": "http://www.bfro.net",
    "source_reference": "13034",
    "name": "Bigfoot Report Class A 1955",
    "class": "A",
    "location": "Hillsborough County",
    "coordinates": {
      "lat": 28.043,
      "lng": -82.438
    },
    "country": "us",
    "city": "Tampa",
    "state": "fl"
  },
  {
    "url": "http://www.bfro.net/GDB/show_report.asp?id=4946",
    "source": "BFRO",
    "source_url": "http://www.bfro.net",
    "source_reference": "4946",
    "name": "Bigfoot Report Class A 1956",
    "class": "A",
    "location": "Nevada County",
    "coordinates": {
      "lat": 39.3225,
      "lng": -120.2653
    },
    "country": "us",
    "city": "Truckee",
    "state": "ca"
  },
  {
    "url": "http://www.bfro.net/GDB/show_report.asp?id=25012",
    "source": "BFRO",
    "source_url": "http://www.bfro.net",
    "source_reference": "25012",
    "name": "Bigfoot Report Class A 1957",
    "class": "A",
    "location": "Cherry County",
    "coordinates": {
      "lat": 42.87331,
      "lng": -100.5501
    },
    "country": "us",
    "city": "Valentine",
    "state": "ne"
  },
  {
    "url": "http://www.bfro.net/GDB/show_report.asp?id=528",
    "source": "BFRO",
    "source_url": "http://www.bfro.net",
    "source_reference": "528",
    "name": "Bigfoot Report Class A 1957 or 58",
    "class": "A",
    "location": "Humboldt County",
    "coordinates": {
      "lat": 40.80222,
      "lng": -124.1625
    },
    "country": "us",
    "city": "Eureka",
    "state": "ca"
  },
  {
    "url": "http://www.bfro.net/GDB/show_report.asp?id=1670",
    "source": "BFRO",
    "source_url": "http://www.bfro.net",
    "source_reference": "1670",
    "name": "Bigfoot Report Class A 1958",
    "class": "A",
    "location": "Snohomish County",
    "coordinates": {
      "lat": 48.2475,
      "lng": -121.9425
    },
    "country": "us",
    "city": "Arlington",
    "state": "wa"
  },
  {
    "url": "http://www.bfro.net/GDB/show_report.asp?id=1330",
    "source": "BFRO",
    "source_url": "http://www.bfro.net",
    "source_reference": "1330",
    "name": "Bigfoot Report Class A 1960",
    "class": "A",
    "location": "Jackson County",
    "coordinates": {
      "lat": 39.33292,
      "lng": -95.84024
    },
    "country": "us",
    "city": "Mayetta",
    "state": "ks"
  },
  {
    "url": "http://www.bfro.net/GDB/show_report.asp?id=9879",
    "source": "BFRO",
    "source_url": "http://www.bfro.net",
    "source_reference": "9879",
    "name": "Bigfoot Report Class A 1960's",
    "class": "A",
    "location": "Morris County",
    "coordinates": {
      "lat": 33.03333,
      "lng": -94.72334
    },
    "country": "us",
    "city": "Daingerfield",
    "state": "tx"
  },
  {
    "url": "http://www.bfro.net/GDB/show_report.asp?id=7234",
    "source": "BFRO",
    "source_url": "http://www.bfro.net",
    "source_reference": "7234",
    "name": "Bigfoot Report Class A 1961",
    "class": "A",
    "location": "Lee County",
    "coordinates": {
      "lat": 34.88111,
      "lng": -91.08056
    },
    "country": "us",
    "city": "Moro",
    "state": "ar"
  },
  {
    "url": "http://www.bfro.net/GDB/show_report.asp?id=9962",
    "source": "BFRO",
    "source_url": "http://www.bfro.net",
    "source_reference": "9962",
    "name": "Bigfoot Report Class A 1962",
    "class": "A",
    "location": "Weber County",
    "coordinates": {
      "lat": 41.5,
      "lng": -111.75
    },
    "country": "us",
    "city": "Paradise",
    "state": "ut"
  },
  {
    "url": "http://www.bfro.net/GDB/show_report.asp?id=3651",
    "source": "BFRO",
    "source_url": "http://www.bfro.net",
    "source_reference": "3651",
    "name": "Bigfoot Report Class A 1962?",
    "class": "A",
    "location": "Portage County",
    "coordinates": {
      "lat": 41.30265,
      "lng": -81.30896
    },
    "country": "us",
    "city": "Aurora",
    "state": "oh"
  },
  {
    "url": "http://www.bfro.net/GDB/show_report.asp?id=5299",
    "source": "BFRO",
    "source_url": "http://www.bfro.net",
    "source_reference": "5299",
    "name": "Bigfoot Report Class A 1963",
    "class": "A",
    "location": "Jefferson County",
    "coordinates": {
      "lat": 47.8306,
      "lng": -123.2135
    },
    "country": "us",
    "city": "Fairholm",
    "state": "wa"
  },
  {
    "url": "http://www.bfro.net/GDB/show_report.asp?id=4141",
    "source": "BFRO",
    "source_url": "http://www.bfro.net",
    "source_reference": "4141",
    "name": "Bigfoot Report Class A 1964",
    "class": "A",
    "location": "Polk County",
    "coordinates": {
      "lat": 30.73861,
      "lng": -94.89778
    },
    "country": "us",
    "city": "Livingston",
    "state": "tx"
  },
  {
    "url": "http://www.bfro.net/GDB/show_report.asp?id=25440",
    "source": "BFRO",
    "source_url": "http://www.bfro.net",
    "source_reference": "25440",
    "name": "Bigfoot Report Class A 1965-66",
    "class": "A",
    "location": "Sumner County",
    "coordinates": {
      "lat": 36.30155,
      "lng": -86.60155
    },
    "country": "us",
    "city": "Hendersonville",
    "state": "tn"
  },
  {
    "url": "http://www.bfro.net/GDB/show_report.asp?id=1473",
    "source": "BFRO",
    "source_url": "http://www.bfro.net",
    "source_reference": "1473",
    "name": "Bigfoot Report Class A 1966",
    "class": "A",
    "location": "Siskiyou County",
    "coordinates": {
      "lat": 41.42806,
      "lng": -122.3839
    },
    "country": "us",
    "city": "Weed",
    "state": "ca"
  },
  {
    "url": "http://www.bfro.net/GDB/show_report.asp?id=1644",
    "source": "BFRO",
    "source_url": "http://www.bfro.net",
    "source_reference": "1644",
    "name": "Bigfoot Report Class A 1967",
    "class": "A",
    "location": "Skamania County",
    "coordinates": {
      "lat": 46.385,
      "lng": -122.1379
    },
    "country": "us",
    "city": "Glenoma",
    "state": "wa"
  },
  {
    "url": "http://www.bfro.net/GDB/show_report.asp?id=9516",
    "source": "BFRO",
    "source_url": "http://www.bfro.net",
    "source_reference": "9516",
    "name": "Bigfoot Report Class A 1968",
    "class": "A",
    "location": "",
    "coordinates": {
      "lat": 44.86073,
      "lng": -79.76308
    },
    "country": "us"
  },
  {
    "url": "http://www.bfro.net/GDB/show_report.asp?id=1344",
    "source": "BFRO",
    "source_url": "http://www.bfro.net",
    "source_reference": "1344",
    "name": "Bigfoot Report Class A 1968",
    "class": "A",
    "location": "Lowndes County",
    "coordinates": {
      "lat": 33.50025,
      "lng": -88.40335
    },
    "country": "us",
    "city": "Columbus",
    "state": "ms"
  },
  {
    "url": "http://www.bfro.net/GDB/show_report.asp?id=4953",
    "source": "BFRO",
    "source_url": "http://www.bfro.net",
    "source_reference": "4953",
    "name": "Bigfoot Report Class A 1968",
    "class": "A",
    "location": "Licking County",
    "coordinates": {
      "lat": 40.00915,
      "lng": -82.67252
    },
    "country": "us",
    "city": "Pataskala",
    "state": "oh"
  },
  {
    "url": "http://www.bfro.net/GDB/show_report.asp?id=22448",
    "source": "BFRO",
    "source_url": "http://www.bfro.net",
    "source_reference": "22448",
    "name": "Bigfoot Report Class A 1969",
    "class": "A",
    "location": "Scott County",
    "coordinates": {
      "lat": 37.236,
      "lng": -89.55949
    },
    "country": "us",
    "city": "Scott City",
    "state": "mo"
  },
  {
    "url": "http://www.bfro.net/GDB/show_report.asp?id=723",
    "source": "BFRO",
    "source_url": "http://www.bfro.net",
    "source_reference": "723",
    "name": "Bigfoot Report Class A 1969-1980",
    "class": "A",
    "location": "Hernando County",
    "coordinates": {
      "lat": 28.50665,
      "lng": -82.50591
    },
    "country": "us",
    "city": "Brooksville",
    "state": "fl"
  },
  {
    "url": "http://www.bfro.net/GDB/show_report.asp?id=1234",
    "source": "BFRO",
    "source_url": "http://www.bfro.net",
    "source_reference": "1234",
    "name": "Bigfoot Report Class A 1970",
    "class": "A",
    "location": "Clayton County",
    "coordinates": {
      "lat": 43.078,
      "lng": -91.3867
    },
    "country": "us",
    "city": "Monona",
    "state": "ia"
  },
  {
    "url": "http://www.bfro.net/GDB/show_report.asp?id=11496",
    "source": "BFRO",
    "source_url": "http://www.bfro.net",
    "source_reference": "11496",
    "name": "Bigfoot Report Class A 1970  1990",
    "class": "A",
    "location": "Shasta County",
    "coordinates": {
      "lat": 40.75,
      "lng": -122.1667
    },
    "country": "us",
    "city": "Obrien",
    "state": "ca"
  },
  {
    "url": "http://www.bfro.net/GDB/show_report.asp?id=12302",
    "source": "BFRO",
    "source_url": "http://www.bfro.net",
    "source_reference": "12302",
    "name": "Bigfoot Report Class A 1970s-1980s",
    "class": "A",
    "location": "Park County",
    "coordinates": {
      "lat": 44.58333,
      "lng": -110.5
    },
    "country": "us",
    "city": "Yellowstone National Park",
    "state": "wy"
  },
  {
    "url": "http://www.bfro.net/GDB/show_report.asp?id=513",
    "source": "BFRO",
    "source_url": "http://www.bfro.net",
    "source_reference": "513",
    "name": "Bigfoot Report Class A 1971",
    "class": "A",
    "location": "Larimer County",
    "coordinates": {
      "lat": 40.79166,
      "lng": -105.9583
    },
    "country": "us",
    "city": "Walden",
    "state": "co"
  },
  {
    "url": "http://www.bfro.net/GDB/show_report.asp?id=4983",
    "source": "BFRO",
    "source_url": "http://www.bfro.net",
    "source_reference": "4983",
    "name": "Bigfoot Report Class A 1971",
    "class": "A",
    "location": "Washington County",
    "coordinates": {
      "lat": 39.38745,
      "lng": -81.67339
    },
    "country": "us",
    "city": "Vincent",
    "state": "oh"
  },
  {
    "url": "http://www.bfro.net/GDB/show_report.asp?id=14707",
    "source": "BFRO",
    "source_url": "http://www.bfro.net",
    "source_reference": "14707",
    "name": "Bigfoot Report Class A 1971",
    "class": "A",
    "location": "Allegheny County",
    "coordinates": {
      "lat": 40.6166,
      "lng": -80.0107
    },
    "country": "us",
    "city": "Gibsonia",
    "state": "pa"
  },
  {
    "url": "http://www.bfro.net/GDB/show_report.asp?id=3439",
    "source": "BFRO",
    "source_url": "http://www.bfro.net",
    "source_reference": "3439",
    "name": "Bigfoot Report Class A 1971 or 72",
    "class": "A",
    "location": "Yadkin County",
    "coordinates": {
      "lat": 36.09945,
      "lng": -80.7704
    },
    "country": "us",
    "city": "Hamptonville",
    "state": "nc"
  },
  {
    "url": "http://www.bfro.net/GDB/show_report.asp?id=1021",
    "source": "BFRO",
    "source_url": "http://www.bfro.net",
    "source_reference": "1021",
    "name": "Bigfoot Report Class A 1971-72?",
    "class": "A",
    "location": "Putnam County",
    "coordinates": {
      "lat": 29.7351,
      "lng": -81.96195
    },
    "country": "us",
    "city": "Putnam Hall",
    "state": "fl"
  },
  {
    "url": "http://www.bfro.net/GDB/show_report.asp?id=1636",
    "source": "BFRO",
    "source_url": "http://www.bfro.net",
    "source_reference": "1636",
    "name": "Bigfoot Report Class A 1972",
    "class": "A",
    "location": "Baxter County",
    "coordinates": {
      "lat": 36.19444,
      "lng": -92.38222
    },
    "country": "us",
    "city": "Mountain Home",
    "state": "ar"
  },
  {
    "url": "http://www.bfro.net/GDB/show_report.asp?id=26605",
    "source": "BFRO",
    "source_url": "http://www.bfro.net",
    "source_reference": "26605",
    "name": "Bigfoot Report Class A 1972",
    "class": "A",
    "location": "Magoffin County",
    "coordinates": {
      "lat": 37.81144,
      "lng": -83.08006
    },
    "country": "us",
    "city": "Maggard",
    "state": "ky"
  },
  {
    "url": "http://www.bfro.net/GDB/show_report.asp?id=4959",
    "source": "BFRO",
    "source_url": "http://www.bfro.net",
    "source_reference": "4959",
    "name": "Bigfoot Report Class A 1972",
    "class": "A",
    "location": "Mahoning County",
    "coordinates": {
      "lat": 41.1174,
      "lng": -80.9835
    },
    "country": "us",
    "city": "Lake Milton",
    "state": "oh"
  },
  {
    "url": "http://www.bfro.net/GDB/show_report.asp?id=7653",
    "source": "BFRO",
    "source_url": "http://www.bfro.net",
    "source_reference": "7653",
    "name": "Bigfoot Report Class A 1972",
    "class": "A",
    "location": "Pecos County",
    "coordinates": {
      "lat": 31.06278,
      "lng": -102.3881
    },
    "country": "us",
    "city": "Bakersfield",
    "state": "tx"
  },
  {
    "url": "http://www.bfro.net/GDB/show_report.asp?id=23530",
    "source": "BFRO",
    "source_url": "http://www.bfro.net",
    "source_reference": "23530",
    "name": "Bigfoot Report Class A 1972-1974?",
    "class": "A",
    "location": "Crawford County",
    "coordinates": {
      "lat": 44.7,
      "lng": -84.71
    },
    "country": "us",
    "city": "Grayling",
    "state": "mi"
  },
  {
    "url": "http://www.bfro.net/GDB/show_report.asp?id=7288",
    "source": "BFRO",
    "source_url": "http://www.bfro.net",
    "source_reference": "7288",
    "name": "Bigfoot Report Class A 1972?",
    "class": "A",
    "location": "Jasper County",
    "coordinates": {
      "lat": 37.1058,
      "lng": -94.5383
    },
    "country": "us",
    "city": "Joplin",
    "state": "mo"
  },
  {
    "url": "http://www.bfro.net/GDB/show_report.asp?id=10153",
    "source": "BFRO",
    "source_url": "http://www.bfro.net",
    "source_reference": "10153",
    "name": "Bigfoot Report Class A 1973",
    "class": "A",
    "location": "Shelby County",
    "coordinates": {
      "lat": 39.365,
      "lng": -85.8486
    },
    "country": "us",
    "city": "Flat Rock",
    "state": "in"
  },
  {
    "url": "http://www.bfro.net/GDB/show_report.asp?id=2428",
    "source": "BFRO",
    "source_url": "http://www.bfro.net",
    "source_reference": "2428",
    "name": "Bigfoot Report Class A 1973",
    "class": "A",
    "location": "Madison County",
    "coordinates": {
      "lat": 37.57039,
      "lng": -84.28714
    },
    "country": "us",
    "city": "Berea",
    "state": "ky"
  },
  {
    "url": "http://www.bfro.net/GDB/show_report.asp?id=1338",
    "source": "BFRO",
    "source_url": "http://www.bfro.net",
    "source_reference": "1338",
    "name": "Bigfoot Report Class A 1973",
    "class": "A",
    "location": "Amite County",
    "coordinates": {
      "lat": 31.1603,
      "lng": -90.71574
    },
    "country": "us",
    "city": "Liberty",
    "state": "ms"
  },
  {
    "url": "http://www.bfro.net/GDB/show_report.asp?id=3333",
    "source": "BFRO",
    "source_url": "http://www.bfro.net",
    "source_reference": "3333",
    "name": "Bigfoot Report Class A 1973",
    "class": "A",
    "location": "Macon County",
    "coordinates": {
      "lat": 35.2483,
      "lng": -83.28265
    },
    "country": "us",
    "city": "Sylva",
    "state": "nc"
  },
  {
    "url": "http://www.bfro.net/GDB/show_report.asp?id=23400",
    "source": "BFRO",
    "source_url": "http://www.bfro.net",
    "source_reference": "23400",
    "name": "Bigfoot Report Class A 1973",
    "class": "A",
    "location": "Fairfax County",
    "coordinates": {
      "lat": 38.741,
      "lng": -77.23238
    },
    "country": "us",
    "city": "Springfield",
    "state": "va"
  },
  {
    "url": "http://www.bfro.net/GDB/show_report.asp?id=1383",
    "source": "BFRO",
    "source_url": "http://www.bfro.net",
    "source_reference": "1383",
    "name": "Bigfoot Report Class A 1973",
    "class": "A",
    "location": "King County",
    "coordinates": {
      "lat": 47.29944,
      "lng": -122.1806
    },
    "country": "us",
    "city": "Auburn",
    "state": "wa"
  },
  {
    "url": "http://www.bfro.net/GDB/show_report.asp?id=1030",
    "source": "BFRO",
    "source_url": "http://www.bfro.net",
    "source_reference": "1030",
    "name": "Bigfoot Report Class A 1973-74?",
    "class": "A",
    "location": "Lee County",
    "coordinates": {
      "lat": 26.59885,
      "lng": -81.8708
    },
    "country": "us",
    "city": "Fort Myers",
    "state": "fl"
  },
  {
    "url": "http://www.bfro.net/GDB/show_report.asp?id=10653",
    "source": "BFRO",
    "source_url": "http://www.bfro.net",
    "source_reference": "10653",
    "name": "Bigfoot Report Class A 1973OR 74",
    "class": "A",
    "location": "Pierce County",
    "coordinates": {
      "lat": 47.18556,
      "lng": -122.2917
    },
    "country": "us",
    "city": "Puyallup",
    "state": "wa"
  },
  {
    "url": "http://www.bfro.net/GDB/show_report.asp?id=1149",
    "source": "BFRO",
    "source_url": "http://www.bfro.net",
    "source_reference": "1149",
    "name": "Bigfoot Report Class A 1974",
    "class": "A",
    "location": "Gage County",
    "coordinates": {
      "lat": 40.1399,
      "lng": -96.7432
    },
    "country": "us",
    "city": "Beatrice",
    "state": "ne"
  },
  {
    "url": "http://www.bfro.net/GDB/show_report.asp?id=26963",
    "source": "BFRO",
    "source_url": "http://www.bfro.net",
    "source_reference": "26963",
    "name": "Bigfoot Report Class A 1974",
    "class": "A",
    "location": "Harrison County",
    "coordinates": {
      "lat": 39.1611,
      "lng": -80.23375
    },
    "country": "us",
    "city": "Overfield",
    "state": "wv"
  },
  {
    "url": "http://www.bfro.net/GDB/show_report.asp?id=10919",
    "source": "BFRO",
    "source_url": "http://www.bfro.net",
    "source_reference": "10919",
    "name": "Bigfoot Report Class A 1975",
    "class": "A",
    "location": "Pulaski County",
    "coordinates": {
      "lat": 34.87,
      "lng": -92.12
    },
    "country": "us",
    "city": "Jacksonville",
    "state": "ar"
  },
  {
    "url": "http://www.bfro.net/GDB/show_report.asp?id=1366",
    "source": "BFRO",
    "source_url": "http://www.bfro.net",
    "source_reference": "1366",
    "name": "Bigfoot Report Class A 1975",
    "class": "A",
    "location": "Lake County",
    "coordinates": {
      "lat": 39.26944,
      "lng": -106.3833
    },
    "country": "us",
    "city": "Leadville",
    "state": "co"
  },
  {
    "url": "http://www.bfro.net/GDB/show_report.asp?id=2805",
    "source": "BFRO",
    "source_url": "http://www.bfro.net",
    "source_reference": "2805",
    "name": "Bigfoot Report Class A 1975",
    "class": "A",
    "location": "Fayette County",
    "coordinates": {
      "lat": 38.98,
      "lng": -89.136
    },
    "country": "us",
    "city": "Shafter",
    "state": "il"
  },
  {
    "url": "http://www.bfro.net/GDB/show_report.asp?id=1341",
    "source": "BFRO",
    "source_url": "http://www.bfro.net",
    "source_reference": "1341",
    "name": "Bigfoot Report Class A 1975",
    "class": "A",
    "location": "Hancock County",
    "coordinates": {
      "lat": 30.2464,
      "lng": -89.6111
    },
    "country": "us",
    "city": "Pearlington",
    "state": "ms"
  },
  {
    "url": "http://www.bfro.net/GDB/show_report.asp?id=7809",
    "source": "BFRO",
    "source_url": "http://www.bfro.net",
    "source_reference": "7809",
    "name": "Bigfoot Report Class A 1975",
    "class": "A",
    "location": "Sarpy County",
    "coordinates": {
      "lat": 41.134,
      "lng": -95.88
    },
    "country": "us",
    "city": "Bellevue",
    "state": "ne"
  },
  {
    "url": "http://www.bfro.net/GDB/show_report.asp?id=2381",
    "source": "BFRO",
    "source_url": "http://www.bfro.net",
    "source_reference": "2381",
    "name": "Bigfoot Report Class A 1976",
    "class": "A",
    "location": "Clark County",
    "coordinates": {
      "lat": 37.89508,
      "lng": -84.1989
    },
    "country": "us",
    "city": "Winchester",
    "state": "ky"
  },
  {
    "url": "http://www.bfro.net/GDB/show_report.asp?id=25432",
    "source": "BFRO",
    "source_url": "http://www.bfro.net",
    "source_reference": "25432",
    "name": "Bigfoot Report Class A 1976-1978",
    "class": "A",
    "location": "Obion County",
    "coordinates": {
      "lat": 36.26451,
      "lng": -89.25397
    },
    "country": "us",
    "city": "Obion",
    "state": "tn"
  },
  {
    "url": "http://www.bfro.net/GDB/show_report.asp?id=5817",
    "source": "BFRO",
    "source_url": "http://www.bfro.net",
    "source_reference": "5817",
    "name": "Bigfoot Report Class A 1976-1980",
    "class": "A",
    "location": "Hughes County",
    "coordinates": {
      "lat": 35.27056,
      "lng": -95.97
    },
    "country": "us",
    "city": "Dustin",
    "state": "ok"
  },
  {
    "url": "http://www.bfro.net/GDB/show_report.asp?id=4093",
    "source": "BFRO",
    "source_url": "http://www.bfro.net",
    "source_reference": "4093",
    "name": "Bigfoot Report Class A 1977",
    "class": "A",
    "location": "Randolph County",
    "coordinates": {
      "lat": 36.19791,
      "lng": -91.1125
    },
    "country": "us",
    "city": "Noland",
    "state": "ar"
  },
  {
    "url": "http://www.bfro.net/GDB/show_report.asp?id=1148",
    "source": "BFRO",
    "source_url": "http://www.bfro.net",
    "source_reference": "1148",
    "name": "Bigfoot Report Class A 1977",
    "class": "A",
    "location": "St. Clair County",
    "coordinates": {
      "lat": 37.9939,
      "lng": -93.8794
    },
    "country": "us",
    "city": "El Dorado Springs",
    "state": "mo"
  },
  {
    "url": "http://www.bfro.net/GDB/show_report.asp?id=1342",
    "source": "BFRO",
    "source_url": "http://www.bfro.net",
    "source_reference": "1342",
    "name": "Bigfoot Report Class A 1977",
    "class": "A",
    "location": "Lauderdale County",
    "coordinates": {
      "lat": 32.3372,
      "lng": -88.74805
    },
    "country": "us",
    "city": "Meridian",
    "state": "ms"
  },
  {
    "url": "http://www.bfro.net/GDB/show_report.asp?id=1614",
    "source": "BFRO",
    "source_url": "http://www.bfro.net",
    "source_reference": "1614",
    "name": "Bigfoot Report Class A 1977",
    "class": "A",
    "location": "Missoula County",
    "coordinates": {
      "lat": 46.97694,
      "lng": -113.8381
    },
    "country": "us",
    "city": "Missoula",
    "state": "mt"
  },
  {
    "url": "http://www.bfro.net/GDB/show_report.asp?id=2750",
    "source": "BFRO",
    "source_url": "http://www.bfro.net",
    "source_reference": "2750",
    "name": "Bigfoot Report Class A 1977",
    "class": "A",
    "location": "Somerset County",
    "coordinates": {
      "lat": 40.7446,
      "lng": -74.6215
    },
    "country": "us",
    "city": "Ralston",
    "state": "nj"
  },
  {
    "url": "http://www.bfro.net/GDB/show_report.asp?id=1625",
    "source": "BFRO",
    "source_url": "http://www.bfro.net",
    "source_reference": "1625",
    "name": "Bigfoot Report Class A 1977",
    "class": "A",
    "location": "Morrow County",
    "coordinates": {
      "lat": 40.38609,
      "lng": -82.69884
    },
    "country": "us",
    "city": "Centerburg",
    "state": "oh"
  },
  {
    "url": "http://www.bfro.net/GDB/show_report.asp?id=4556",
    "source": "BFRO",
    "source_url": "http://www.bfro.net",
    "source_reference": "4556",
    "name": "Bigfoot Report Class A 1977",
    "class": "A",
    "location": "Defiance County",
    "coordinates": {
      "lat": 41.34728,
      "lng": -84.54476
    },
    "country": "us",
    "city": "Ney",
    "state": "oh"
  },
  {
    "url": "http://www.bfro.net/GDB/show_report.asp?id=11506",
    "source": "BFRO",
    "source_url": "http://www.bfro.net",
    "source_reference": "11506",
    "name": "Bigfoot Report Class A 1977",
    "class": "A",
    "location": "Erie County",
    "coordinates": {
      "lat": 41.91826,
      "lng": -80.54177
    },
    "country": "us",
    "city": "Conneaut",
    "state": "oh"
  },
  {
    "url": "http://www.bfro.net/GDB/show_report.asp?id=7399",
    "source": "BFRO",
    "source_url": "http://www.bfro.net",
    "source_reference": "7399",
    "name": "Bigfoot Report Class A 1977 or 78",
    "class": "A",
    "location": "Lenawee County",
    "coordinates": {
      "lat": 41.93,
      "lng": -84.35389
    },
    "country": "us",
    "city": "Rollin",
    "state": "mi"
  },
  {
    "url": "http://www.bfro.net/GDB/show_report.asp?id=799",
    "source": "BFRO",
    "source_url": "http://www.bfro.net",
    "source_reference": "799",
    "name": "Bigfoot Report Class A 1978",
    "class": "A",
    "location": "Limestone County",
    "coordinates": {
      "lat": 34.92855,
      "lng": -87.1105
    },
    "country": "us",
    "city": "Mount Rozell",
    "state": "al"
  },
  {
    "url": "http://www.bfro.net/GDB/show_report.asp?id=1315",
    "source": "BFRO",
    "source_url": "http://www.bfro.net",
    "source_reference": "1315",
    "name": "Bigfoot Report Class A 1978",
    "class": "A",
    "location": "Riley County",
    "coordinates": {
      "lat": 39.1463,
      "lng": -96.8223
    },
    "country": "us",
    "city": "Fort Riley",
    "state": "ks"
  },
  {
    "url": "http://www.bfro.net/GDB/show_report.asp?id=2383",
    "source": "BFRO",
    "source_url": "http://www.bfro.net",
    "source_reference": "2383",
    "name": "Bigfoot Report Class A 1978",
    "class": "A",
    "location": "Henry County",
    "coordinates": {
      "lat": 38.44148,
      "lng": -85.0016
    },
    "country": "us",
    "city": "Pleasureville",
    "state": "ky"
  },
  {
    "url": "http://www.bfro.net/GDB/show_report.asp?id=23481",
    "source": "BFRO",
    "source_url": "http://www.bfro.net",
    "source_reference": "23481",
    "name": "Bigfoot Report Class A 1978",
    "class": "A",
    "location": "Livingston County",
    "coordinates": {
      "lat": 42.68505,
      "lng": -84.04025
    },
    "country": "us",
    "city": "Fowlerville",
    "state": "mi"
  },
  {
    "url": "http://www.bfro.net/GDB/show_report.asp?id=3180",
    "source": "BFRO",
    "source_url": "http://www.bfro.net",
    "source_reference": "3180",
    "name": "Bigfoot Report Class A 1978",
    "class": "A",
    "location": "Washington County",
    "coordinates": {
      "lat": 39.40877,
      "lng": -81.73172
    },
    "country": "us",
    "city": "Layman",
    "state": "oh"
  },
  {
    "url": "http://www.bfro.net/GDB/show_report.asp?id=6643",
    "source": "BFRO",
    "source_url": "http://www.bfro.net",
    "source_reference": "6643",
    "name": "Bigfoot Report Class A 1978",
    "class": "A",
    "location": "Washington County",
    "coordinates": {
      "lat": 41.432,
      "lng": -71.65183
    },
    "country": "us",
    "city": "Charlestown",
    "state": "ri"
  },
  {
    "url": "http://www.bfro.net/GDB/show_report.asp?id=18632",
    "source": "BFRO",
    "source_url": "http://www.bfro.net",
    "source_reference": "18632",
    "name": "Bigfoot Report Class A 1978",
    "class": "A",
    "location": "Barnwell County",
    "coordinates": {
      "lat": 33.245,
      "lng": -81.359
    },
    "country": "us",
    "city": "Barnwell",
    "state": "sc"
  },
  {
    "url": "http://www.bfro.net/GDB/show_report.asp?id=9315",
    "source": "BFRO",
    "source_url": "http://www.bfro.net",
    "source_reference": "9315",
    "name": "Bigfoot Report Class A 1978 or 1979",
    "class": "A",
    "location": "Wharton County",
    "coordinates": {
      "lat": 29.38333,
      "lng": -96.25
    },
    "country": "us",
    "city": "Egypt",
    "state": "tx"
  },
  {
    "url": "http://www.bfro.net/GDB/show_report.asp?id=1653",
    "source": "BFRO",
    "source_url": "http://www.bfro.net",
    "source_reference": "1653",
    "name": "Bigfoot Report Class A 1978 or 79",
    "class": "A",
    "location": "Shasta County",
    "coordinates": {
      "lat": 40.63556,
      "lng": -122.7325
    },
    "country": "us",
    "city": "Shasta",
    "state": "ca"
  },
  {
    "url": "http://www.bfro.net/GDB/show_report.asp?id=1201",
    "source": "BFRO",
    "source_url": "http://www.bfro.net",
    "source_reference": "1201",
    "name": "Bigfoot Report Class A 1978-79",
    "class": "A",
    "location": "Marion County",
    "coordinates": {
      "lat": 39.52122,
      "lng": -80.37878
    },
    "country": "us",
    "city": "Deep Valley",
    "state": "wv"
  },
  {
    "url": "http://www.bfro.net/GDB/show_report.asp?id=1502",
    "source": "BFRO",
    "source_url": "http://www.bfro.net",
    "source_reference": "1502",
    "name": "Bigfoot Report Class A 1979",
    "class": "A",
    "location": "Vernon County",
    "coordinates": {
      "lat": 31.1458,
      "lng": -93.2512
    },
    "country": "us",
    "city": "Leesville",
    "state": "la"
  },
  {
    "url": "http://www.bfro.net/GDB/show_report.asp?id=1695",
    "source": "BFRO",
    "source_url": "http://www.bfro.net",
    "source_reference": "1695",
    "name": "Bigfoot Report Class A 1979",
    "class": "A",
    "location": "Richland County",
    "coordinates": {
      "lat": 47.70667,
      "lng": -104.1922
    },
    "country": "us",
    "city": "Sidney",
    "state": "mt"
  },
  {
    "url": "http://www.bfro.net/GDB/show_report.asp?id=26076",
    "source": "BFRO",
    "source_url": "http://www.bfro.net",
    "source_reference": "26076",
    "name": "Bigfoot Report Class A 1979",
    "class": "A",
    "location": "Nash County",
    "coordinates": {
      "lat": 36.0089,
      "lng": -77.90525
    },
    "country": "us",
    "city": "Rocky Mount",
    "state": "nc"
  },
  {
    "url": "http://www.bfro.net/GDB/show_report.asp?id=1152",
    "source": "BFRO",
    "source_url": "http://www.bfro.net",
    "source_reference": "1152",
    "name": "Bigfoot Report Class A 1979",
    "class": "A",
    "location": "Knox County",
    "coordinates": {
      "lat": 42.76609,
      "lng": -97.97573
    },
    "country": "us",
    "city": "Niobrara",
    "state": "ne"
  },
  {
    "url": "http://www.bfro.net/GDB/show_report.asp?id=1527",
    "source": "BFRO",
    "source_url": "http://www.bfro.net",
    "source_reference": "1527",
    "name": "Bigfoot Report Class A 1979",
    "class": "A",
    "location": "Bosque County",
    "coordinates": {
      "lat": 32.15,
      "lng": -97.5
    },
    "country": "us",
    "city": "Kopperl",
    "state": "tx"
  },
  {
    "url": "http://www.bfro.net/GDB/show_report.asp?id=3005",
    "source": "BFRO",
    "source_url": "http://www.bfro.net",
    "source_reference": "3005",
    "name": "Bigfoot Report Class A 1979",
    "class": "A",
    "location": "Lincoln County",
    "coordinates": {
      "lat": 45.22849,
      "lng": -89.67523
    },
    "country": "us",
    "city": "Merrill",
    "state": "wi"
  },
  {
    "url": "http://www.bfro.net/GDB/show_report.asp?id=1207",
    "source": "BFRO",
    "source_url": "http://www.bfro.net",
    "source_reference": "1207",
    "name": "Bigfoot Report Class A 1979 -'84",
    "class": "A",
    "location": "Wayne County",
    "coordinates": {
      "lat": 38.12764,
      "lng": -82.59822
    },
    "country": "us",
    "city": "Fort Gay",
    "state": "wv"
  },
  {
    "url": "http://www.bfro.net/GDB/show_report.asp?id=21402",
    "source": "BFRO",
    "source_url": "http://www.bfro.net",
    "source_reference": "21402",
    "name": "Bigfoot Report Class A 1979-1980",
    "class": "A",
    "location": "White County",
    "coordinates": {
      "lat": 34.64145,
      "lng": -83.80404
    },
    "country": "us",
    "city": "Cleveland",
    "state": "ga"
  },
  {
    "url": "http://www.bfro.net/GDB/show_report.asp?id=24905",
    "source": "BFRO",
    "source_url": "http://www.bfro.net",
    "source_reference": "24905",
    "name": "Bigfoot Report Class A 1979/1980",
    "class": "A",
    "location": "Liberty County",
    "coordinates": {
      "lat": 30.302,
      "lng": -95.10654
    },
    "country": "us",
    "city": "Splendora",
    "state": "tx"
  },
  {
    "url": "http://www.bfro.net/GDB/show_report.asp?id=6210",
    "source": "BFRO",
    "source_url": "http://www.bfro.net",
    "source_reference": "6210",
    "name": "Bigfoot Report Class A 197?",
    "class": "A",
    "location": "Lewis County",
    "coordinates": {
      "lat": 38.56277,
      "lng": -83.32354
    },
    "country": "us",
    "city": "Clarksburg",
    "state": "ky"
  },
  {
    "url": "http://www.bfro.net/GDB/show_report.asp?id=1275",
    "source": "BFRO",
    "source_url": "http://www.bfro.net",
    "source_reference": "1275",
    "name": "Bigfoot Report Class A 1980",
    "class": "A",
    "location": "Orange County",
    "coordinates": {
      "lat": 28.6901,
      "lng": -81.5446
    },
    "country": "us",
    "city": "Apopka",
    "state": "fl"
  },
  {
    "url": "http://www.bfro.net/GDB/show_report.asp?id=23745",
    "source": "BFRO",
    "source_url": "http://www.bfro.net",
    "source_reference": "23745",
    "name": "Bigfoot Report Class A 1980",
    "class": "A",
    "location": "Franklin County",
    "coordinates": {
      "lat": 32.0131,
      "lng": -91.14448
    },
    "country": "us",
    "city": "Port Gibson",
    "state": "ms"
  },
  {
    "url": "http://www.bfro.net/GDB/show_report.asp?id=1155",
    "source": "BFRO",
    "source_url": "http://www.bfro.net",
    "source_reference": "1155",
    "name": "Bigfoot Report Class A 1980",
    "class": "A",
    "location": "Lancaster County",
    "coordinates": {
      "lat": 40.84792,
      "lng": -96.6824
    },
    "country": "us",
    "city": "Lincoln",
    "state": "ne"
  },
  {
    "url": "http://www.bfro.net/GDB/show_report.asp?id=2400",
    "source": "BFRO",
    "source_url": "http://www.bfro.net",
    "source_reference": "2400",
    "name": "Bigfoot Report Class A 1980",
    "class": "A",
    "location": "Houston County",
    "coordinates": {
      "lat": 31.35833,
      "lng": -95.48833
    },
    "country": "us",
    "city": "Latexo",
    "state": "tx"
  },
  {
    "url": "http://www.bfro.net/GDB/show_report.asp?id=11430",
    "source": "BFRO",
    "source_url": "http://www.bfro.net",
    "source_reference": "11430",
    "name": "Bigfoot Report Class A 1981",
    "class": "A",
    "location": "Madison County",
    "coordinates": {
      "lat": 36.31519,
      "lng": -93.75723
    },
    "country": "us",
    "city": "Eureka Springs",
    "state": "ar"
  },
  {
    "url": "http://www.bfro.net/GDB/show_report.asp?id=1376",
    "source": "BFRO",
    "source_url": "http://www.bfro.net",
    "source_reference": "1376",
    "name": "Bigfoot Report Class A 1981",
    "class": "A",
    "location": "Teller County",
    "coordinates": {
      "lat": 38.753,
      "lng": -105.1598
    },
    "country": "us",
    "city": "Victor",
    "state": "co"
  },
  {
    "url": "http://www.bfro.net/GDB/show_report.asp?id=8678",
    "source": "BFRO",
    "source_url": "http://www.bfro.net",
    "source_reference": "8678",
    "name": "Bigfoot Report Class A 1981",
    "class": "A",
    "location": "Latimer County",
    "coordinates": {
      "lat": 34.92333,
      "lng": -95.26167
    },
    "country": "us",
    "city": "Wilburton",
    "state": "ok"
  },
  {
    "url": "http://www.bfro.net/GDB/show_report.asp?id=16962",
    "source": "BFRO",
    "source_url": "http://www.bfro.net",
    "source_reference": "16962",
    "name": "Bigfoot Report Class A 1981",
    "class": "A",
    "location": "Pickens County",
    "coordinates": {
      "lat": 34.52414,
      "lng": -82.38998
    },
    "country": "us",
    "city": "Toney Creek",
    "state": "sc"
  },
  {
    "url": "http://www.bfro.net/GDB/show_report.asp?id=24539",
    "source": "BFRO",
    "source_url": "http://www.bfro.net",
    "source_reference": "24539",
    "name": "Bigfoot Report Class A 1981",
    "class": "A",
    "location": "Cherokee County",
    "coordinates": {
      "lat": 31.82347,
      "lng": -95.37101
    },
    "country": "us",
    "city": "Maydelle",
    "state": "tx"
  },
  {
    "url": "http://www.bfro.net/GDB/show_report.asp?id=26581",
    "source": "BFRO",
    "source_url": "http://www.bfro.net",
    "source_reference": "26581",
    "name": "Bigfoot Report Class A 1981 or 1982",
    "class": "A",
    "location": "Pasco County",
    "coordinates": {
      "lat": 28.29425,
      "lng": -82.71758
    },
    "country": "us",
    "city": "Port Richey",
    "state": "fl"
  },
  {
    "url": "http://www.bfro.net/GDB/show_report.asp?id=2279",
    "source": "BFRO",
    "source_url": "http://www.bfro.net",
    "source_reference": "2279",
    "name": "Bigfoot Report Class A 1982",
    "class": "A",
    "location": "Tattnall County",
    "coordinates": {
      "lat": 31.8792,
      "lng": -81.88475
    },
    "country": "us",
    "city": "Glennville",
    "state": "ga"
  },
  {
    "url": "http://www.bfro.net/GDB/show_report.asp?id=1517",
    "source": "BFRO",
    "source_url": "http://www.bfro.net",
    "source_reference": "1517",
    "name": "Bigfoot Report Class A 1982",
    "class": "A",
    "location": "Glacier County",
    "coordinates": {
      "lat": 48.36139,
      "lng": -113.1236
    },
    "country": "us",
    "city": "East Glacier Park",
    "state": "mt"
  },
  {
    "url": "http://www.bfro.net/GDB/show_report.asp?id=1519",
    "source": "BFRO",
    "source_url": "http://www.bfro.net",
    "source_reference": "1519",
    "name": "Bigfoot Report Class A 1982",
    "class": "A",
    "location": "Lewis And Clark County",
    "coordinates": {
      "lat": 47.04333,
      "lng": -112.7031
    },
    "country": "us",
    "city": "Lincoln",
    "state": "mt"
  },
  {
    "url": "http://www.bfro.net/GDB/show_report.asp?id=10273",
    "source": "BFRO",
    "source_url": "http://www.bfro.net",
    "source_reference": "10273",
    "name": "Bigfoot Report Class A 1982",
    "class": "A",
    "location": "Matagorda County",
    "coordinates": {
      "lat": 28.97944,
      "lng": -96.01666
    },
    "country": "us",
    "city": "Markham",
    "state": "tx"
  },
  {
    "url": "http://www.bfro.net/GDB/show_report.asp?id=11762",
    "source": "BFRO",
    "source_url": "http://www.bfro.net",
    "source_reference": "11762",
    "name": "Bigfoot Report Class A 1982 or 1983",
    "class": "A",
    "location": "Hendry County",
    "coordinates": {
      "lat": 26.61979,
      "lng": -80.60976
    },
    "country": "us",
    "city": "Belle Glade Camp",
    "state": "fl"
  },
  {
    "url": "http://www.bfro.net/GDB/show_report.asp?id=2696",
    "source": "BFRO",
    "source_url": "http://www.bfro.net",
    "source_reference": "2696",
    "name": "Bigfoot Report Class A 1982 or 83",
    "class": "A",
    "location": "Columbiana County",
    "coordinates": {
      "lat": 40.70386,
      "lng": -80.58332
    },
    "country": "us",
    "city": "East Liverpool",
    "state": "oh"
  },
  {
    "url": "http://www.bfro.net/GDB/show_report.asp?id=4138",
    "source": "BFRO",
    "source_url": "http://www.bfro.net",
    "source_reference": "4138",
    "name": "Bigfoot Report Class A 1983",
    "class": "A",
    "location": "Montgomery County",
    "coordinates": {
      "lat": 30.23333,
      "lng": -95.60834
    },
    "country": "us",
    "city": "Magnolia",
    "state": "tx"
  },
  {
    "url": "http://www.bfro.net/GDB/show_report.asp?id=6007",
    "source": "BFRO",
    "source_url": "http://www.bfro.net",
    "source_reference": "6007",
    "name": "Bigfoot Report Class A 1983",
    "class": "A",
    "location": "Rusk County",
    "coordinates": {
      "lat": 32.27444,
      "lng": -94.965
    },
    "country": "us",
    "city": "Overton",
    "state": "tx"
  },
  {
    "url": "http://www.bfro.net/GDB/show_report.asp?id=406",
    "source": "BFRO",
    "source_url": "http://www.bfro.net",
    "source_reference": "406",
    "name": "Bigfoot Report Class A 1984",
    "class": "A",
    "location": "Cowlitz County",
    "coordinates": {
      "lat": 46.05333,
      "lng": -122.6228
    },
    "country": "us",
    "city": "Kalama",
    "state": "wa"
  },
  {
    "url": "http://www.bfro.net/GDB/show_report.asp?id=2792",
    "source": "BFRO",
    "source_url": "http://www.bfro.net",
    "source_reference": "2792",
    "name": "Bigfoot Report Class A 1984",
    "class": "A",
    "location": "Oneida County",
    "coordinates": {
      "lat": 45.89832,
      "lng": -89.6965
    },
    "country": "us",
    "city": "Woodruff",
    "state": "wi"
  },
  {
    "url": "http://www.bfro.net/GDB/show_report.asp?id=13642",
    "source": "BFRO",
    "source_url": "http://www.bfro.net",
    "source_reference": "13642",
    "name": "Bigfoot Report Class A 1984/85",
    "class": "A",
    "location": "",
    "coordinates": {
      "lat": 49.4068,
      "lng": -122.1171
    },
    "country": "us",
    "city": "Sumas",
    "state": "wa"
  },
  {
    "url": "http://www.bfro.net/GDB/show_report.asp?id=191",
    "source": "BFRO",
    "source_url": "http://www.bfro.net",
    "source_reference": "191",
    "name": "Bigfoot Report Class A 1984/85?",
    "class": "A",
    "location": "Washington County",
    "coordinates": {
      "lat": 45.63606,
      "lng": -123.3471
    },
    "country": "us",
    "city": "Gales Creek",
    "state": "or"
  },
  {
    "url": "http://www.bfro.net/GDB/show_report.asp?id=5608",
    "source": "BFRO",
    "source_url": "http://www.bfro.net",
    "source_reference": "5608",
    "name": "Bigfoot Report Class A 1985",
    "class": "A",
    "location": "Las Animas County",
    "coordinates": {
      "lat": 37.09263,
      "lng": -104.3786
    },
    "country": "us",
    "city": "Trinchera",
    "state": "co"
  },
  {
    "url": "http://www.bfro.net/GDB/show_report.asp?id=2566",
    "source": "BFRO",
    "source_url": "http://www.bfro.net",
    "source_reference": "2566",
    "name": "Bigfoot Report Class A 1985",
    "class": "A",
    "location": "Alachua County",
    "coordinates": {
      "lat": 29.77535,
      "lng": -82.3657
    },
    "country": "us",
    "city": "Gainesville",
    "state": "fl"
  },
  {
    "url": "http://www.bfro.net/GDB/show_report.asp?id=23247",
    "source": "BFRO",
    "source_url": "http://www.bfro.net",
    "source_reference": "23247",
    "name": "Bigfoot Report Class A 1985",
    "class": "A",
    "location": "Bay County",
    "coordinates": {
      "lat": 29.93629,
      "lng": -85.3948
    },
    "country": "us",
    "city": "Port Saint Joe",
    "state": "fl"
  },
  {
    "url": "http://www.bfro.net/GDB/show_report.asp?id=10354",
    "source": "BFRO",
    "source_url": "http://www.bfro.net",
    "source_reference": "10354",
    "name": "Bigfoot Report Class A 1985",
    "class": "A",
    "location": "Spokane County",
    "coordinates": {
      "lat": 47.62769,
      "lng": -117.3606
    },
    "country": "us",
    "city": "Spokane",
    "state": "wa"
  },
  {
    "url": "http://www.bfro.net/GDB/show_report.asp?id=606",
    "source": "BFRO",
    "source_url": "http://www.bfro.net",
    "source_reference": "606",
    "name": "Bigfoot Report Class A 1986",
    "class": "A",
    "location": "Clay County",
    "coordinates": {
      "lat": 30.05705,
      "lng": -81.75165
    },
    "country": "us",
    "city": "Green Cove Springs",
    "state": "fl"
  },
  {
    "url": "http://www.bfro.net/GDB/show_report.asp?id=21271",
    "source": "BFRO",
    "source_url": "http://www.bfro.net",
    "source_reference": "21271",
    "name": "Bigfoot Report Class A 1986",
    "class": "A",
    "location": "Luce County",
    "coordinates": {
      "lat": 46.56725,
      "lng": -85.589
    },
    "country": "us",
    "city": "Newberry",
    "state": "mi"
  },
  {
    "url": "http://www.bfro.net/GDB/show_report.asp?id=8017",
    "source": "BFRO",
    "source_url": "http://www.bfro.net",
    "source_reference": "8017",
    "name": "Bigfoot Report Class A 1986 or 1987?",
    "class": "A",
    "location": "Vinton County",
    "coordinates": {
      "lat": 39.14299,
      "lng": -82.41166
    },
    "country": "us",
    "city": "Radcliff",
    "state": "oh"
  },
  {
    "url": "http://www.bfro.net/GDB/show_report.asp?id=14646",
    "source": "BFRO",
    "source_url": "http://www.bfro.net",
    "source_reference": "14646",
    "name": "Bigfoot Report Class A 1986-87",
    "class": "A",
    "location": "Franklin County",
    "coordinates": {
      "lat": 40.08159,
      "lng": -83.0337
    },
    "country": "us",
    "city": "Riverlea",
    "state": "oh"
  },
  {
    "url": "http://www.bfro.net/GDB/show_report.asp?id=23823",
    "source": "BFRO",
    "source_url": "http://www.bfro.net",
    "source_reference": "23823",
    "name": "Bigfoot Report Class A 1987",
    "class": "A",
    "location": "Lincoln County",
    "coordinates": {
      "lat": 35.10615,
      "lng": -86.46987
    },
    "country": "us",
    "city": "Fayetteville",
    "state": "tn"
  },
  {
    "url": "http://www.bfro.net/GDB/show_report.asp?id=8067",
    "source": "BFRO",
    "source_url": "http://www.bfro.net",
    "source_reference": "8067",
    "name": "Bigfoot Report Class A 1987",
    "class": "A",
    "location": "Harrison County",
    "coordinates": {
      "lat": 32.8,
      "lng": -94.16666
    },
    "country": "us",
    "city": "Smithland",
    "state": "tx"
  },
  {
    "url": "http://www.bfro.net/GDB/show_report.asp?id=9038",
    "source": "BFRO",
    "source_url": "http://www.bfro.net",
    "source_reference": "9038",
    "name": "Bigfoot Report Class A 1987",
    "class": "A",
    "location": "Gregg County",
    "coordinates": {
      "lat": 32.51667,
      "lng": -94.9
    },
    "country": "us",
    "city": "Longview",
    "state": "tx"
  },
  {
    "url": "http://www.bfro.net/GDB/show_report.asp?id=12587",
    "source": "BFRO",
    "source_url": "http://www.bfro.net",
    "source_reference": "12587",
    "name": "Bigfoot Report Class A 1988",
    "class": "A",
    "location": "Sarasota County",
    "coordinates": {
      "lat": 27.099,
      "lng": -82.454
    },
    "country": "us",
    "city": "Venice",
    "state": "fl"
  },
  {
    "url": "http://www.bfro.net/GDB/show_report.asp?id=4952",
    "source": "BFRO",
    "source_url": "http://www.bfro.net",
    "source_reference": "4952",
    "name": "Bigfoot Report Class A 1988",
    "class": "A",
    "location": "Jefferson County",
    "coordinates": {
      "lat": 40.2831,
      "lng": -80.78826
    },
    "country": "us",
    "city": "Smithfield",
    "state": "oh"
  },
  {
    "url": "http://www.bfro.net/GDB/show_report.asp?id=4158",
    "source": "BFRO",
    "source_url": "http://www.bfro.net",
    "source_reference": "4158",
    "name": "Bigfoot Report Class A 1988",
    "class": "A",
    "location": "Throckmorton County",
    "coordinates": {
      "lat": 33.16972,
      "lng": -99.18778
    },
    "country": "us",
    "city": "Throckmorton",
    "state": "tx"
  },
  {
    "url": "http://www.bfro.net/GDB/show_report.asp?id=746",
    "source": "BFRO",
    "source_url": "http://www.bfro.net",
    "source_reference": "746",
    "name": "Bigfoot Report Class A 1989",
    "class": "A",
    "location": "Volusia County",
    "coordinates": {
      "lat": 28.85025,
      "lng": -80.93919
    },
    "country": "us",
    "city": "Oak Hill",
    "state": "fl"
  },
  {
    "url": "http://www.bfro.net/GDB/show_report.asp?id=1138",
    "source": "BFRO",
    "source_url": "http://www.bfro.net",
    "source_reference": "1138",
    "name": "Bigfoot Report Class A 1989",
    "class": "A",
    "location": "Pulaski County",
    "coordinates": {
      "lat": 37.82861,
      "lng": -92.20055
    },
    "country": "us",
    "city": "Waynesville",
    "state": "mo"
  },
  {
    "url": "http://www.bfro.net/GDB/show_report.asp?id=1022",
    "source": "BFRO",
    "source_url": "http://www.bfro.net",
    "source_reference": "1022",
    "name": "Bigfoot Report Class A 1990",
    "class": "A",
    "location": "Walker County",
    "coordinates": {
      "lat": 33.97575,
      "lng": -87.45876
    },
    "country": "us",
    "city": "Nauvoo",
    "state": "al"
  },
  {
    "url": "http://www.bfro.net/GDB/show_report.asp?id=27480",
    "source": "BFRO",
    "source_url": "http://www.bfro.net",
    "source_reference": "27480",
    "name": "Bigfoot Report Class A 1990",
    "class": "A",
    "location": "Walker County",
    "coordinates": {
      "lat": 33.8957,
      "lng": -87.53395
    },
    "country": "us",
    "city": "Carbon Hill",
    "state": "al"
  },
  {
    "url": "http://www.bfro.net/GDB/show_report.asp?id=724",
    "source": "BFRO",
    "source_url": "http://www.bfro.net",
    "source_reference": "724",
    "name": "Bigfoot Report Class A 1990",
    "class": "A",
    "location": "Jackson County",
    "coordinates": {
      "lat": 30.8724,
      "lng": -85.217
    },
    "country": "us",
    "city": "Marianna",
    "state": "fl"
  },
  {
    "url": "http://www.bfro.net/GDB/show_report.asp?id=317",
    "source": "BFRO",
    "source_url": "http://www.bfro.net",
    "source_reference": "317",
    "name": "Bigfoot Report Class A 1990",
    "class": "A",
    "location": "Marshall County",
    "coordinates": {
      "lat": 36.8207,
      "lng": -88.41175
    },
    "country": "us",
    "city": "Benton",
    "state": "ky"
  },
  {
    "url": "http://www.bfro.net/GDB/show_report.asp?id=20100",
    "source": "BFRO",
    "source_url": "http://www.bfro.net",
    "source_reference": "20100",
    "name": "Bigfoot Report Class A 1990",
    "class": "A",
    "location": "Marquette County",
    "coordinates": {
      "lat": 46.09045,
      "lng": -87.48289
    },
    "country": "us",
    "city": "Arnold",
    "state": "mi"
  },
  {
    "url": "http://www.bfro.net/GDB/show_report.asp?id=7085",
    "source": "BFRO",
    "source_url": "http://www.bfro.net",
    "source_reference": "7085",
    "name": "Bigfoot Report Class A 1990",
    "class": "A",
    "location": "Washington County",
    "coordinates": {
      "lat": 39.3731,
      "lng": -81.65929
    },
    "country": "us",
    "city": "Fleming",
    "state": "oh"
  },
  {
    "url": "http://www.bfro.net/GDB/show_report.asp?id=9036",
    "source": "BFRO",
    "source_url": "http://www.bfro.net",
    "source_reference": "9036",
    "name": "Bigfoot Report Class A 1990",
    "class": "A",
    "location": "Liberty County",
    "coordinates": {
      "lat": 30.08333,
      "lng": -94.86667
    },
    "country": "us",
    "city": "Kenefick",
    "state": "tx"
  },
  {
    "url": "http://www.bfro.net/GDB/show_report.asp?id=18723",
    "source": "BFRO",
    "source_url": "http://www.bfro.net",
    "source_reference": "18723",
    "name": "Bigfoot Report Class A 1990's",
    "class": "A",
    "location": "Maricopa County",
    "coordinates": {
      "lat": 33.85,
      "lng": -111.69
    },
    "country": "us",
    "city": "Scottsdale",
    "state": "az"
  },
  {
    "url": "http://www.bfro.net/GDB/show_report.asp?id=7534",
    "source": "BFRO",
    "source_url": "http://www.bfro.net",
    "source_reference": "7534",
    "name": "Bigfoot Report Class A 1990-92",
    "class": "A",
    "location": "Johnson County",
    "coordinates": {
      "lat": 32.17194,
      "lng": -97.54944
    },
    "country": "us",
    "city": "Cleburne",
    "state": "tx"
  },
  {
    "url": "http://www.bfro.net/GDB/show_report.asp?id=3169",
    "source": "BFRO",
    "source_url": "http://www.bfro.net",
    "source_reference": "3169",
    "name": "Bigfoot Report Class A 1991",
    "class": "A",
    "location": "Sonoma County",
    "coordinates": {
      "lat": 38.25583,
      "lng": -122.5833
    },
    "country": "us",
    "city": "Petaluma",
    "state": "ca"
  },
  {
    "url": "http://www.bfro.net/GDB/show_report.asp?id=1135",
    "source": "BFRO",
    "source_url": "http://www.bfro.net",
    "source_reference": "1135",
    "name": "Bigfoot Report Class A 1991",
    "class": "A",
    "location": "Pike County",
    "coordinates": {
      "lat": 39.29007,
      "lng": -91.09014
    },
    "country": "us",
    "city": "Bowling Green",
    "state": "mo"
  },
  {
    "url": "http://www.bfro.net/GDB/show_report.asp?id=24235",
    "source": "BFRO",
    "source_url": "http://www.bfro.net",
    "source_reference": "24235",
    "name": "Bigfoot Report Class A 1991",
    "class": "A",
    "location": "Laurens County",
    "coordinates": {
      "lat": 34.53654,
      "lng": -81.70052
    },
    "country": "us",
    "city": "Sedalia",
    "state": "sc"
  },
  {
    "url": "http://www.bfro.net/GDB/show_report.asp?id=8038",
    "source": "BFRO",
    "source_url": "http://www.bfro.net",
    "source_reference": "8038",
    "name": "Bigfoot Report Class A 1991-1995",
    "class": "A",
    "location": "Grayson County",
    "coordinates": {
      "lat": 33.71472,
      "lng": -96.78917
    },
    "country": "us",
    "city": "Sadler",
    "state": "tx"
  },
  {
    "url": "http://www.bfro.net/GDB/show_report.asp?id=18043",
    "source": "BFRO",
    "source_url": "http://www.bfro.net",
    "source_reference": "18043",
    "name": "Bigfoot Report Class A 1992",
    "class": "A",
    "location": "Marshall County",
    "coordinates": {
      "lat": 34.27607,
      "lng": -86.17524
    },
    "country": "us",
    "city": "Albertville",
    "state": "al"
  },
  {
    "url": "http://www.bfro.net/GDB/show_report.asp?id=5030",
    "source": "BFRO",
    "source_url": "http://www.bfro.net",
    "source_reference": "5030",
    "name": "Bigfoot Report Class A 1992",
    "class": "A",
    "location": "Stark County",
    "coordinates": {
      "lat": 40.75872,
      "lng": -81.19895
    },
    "country": "us",
    "city": "Canton",
    "state": "oh"
  },
  {
    "url": "http://www.bfro.net/GDB/show_report.asp?id=27177",
    "source": "BFRO",
    "source_url": "http://www.bfro.net",
    "source_reference": "27177",
    "name": "Bigfoot Report Class A 1993",
    "class": "A",
    "location": "Los Angeles County",
    "coordinates": {
      "lat": 34.76666,
      "lng": -118.5834
    },
    "country": "us",
    "city": "Three Points",
    "state": "ca"
  },
  {
    "url": "http://www.bfro.net/GDB/show_report.asp?id=23696",
    "source": "BFRO",
    "source_url": "http://www.bfro.net",
    "source_reference": "23696",
    "name": "Bigfoot Report Class A 1993",
    "class": "A",
    "location": "Lake County",
    "coordinates": {
      "lat": 28.86151,
      "lng": -81.7757
    },
    "country": "us",
    "city": "Leesburg",
    "state": "fl"
  },
  {
    "url": "http://www.bfro.net/GDB/show_report.asp?id=7045",
    "source": "BFRO",
    "source_url": "http://www.bfro.net",
    "source_reference": "7045",
    "name": "Bigfoot Report Class A 1994",
    "class": "A",
    "location": "Benton County",
    "coordinates": {
      "lat": 36.34167,
      "lng": -93.94583
    },
    "country": "us",
    "city": "Rogers",
    "state": "ar"
  },
  {
    "url": "http://www.bfro.net/GDB/show_report.asp?id=6429",
    "source": "BFRO",
    "source_url": "http://www.bfro.net",
    "source_reference": "6429",
    "name": "Bigfoot Report Class A 1994",
    "class": "A",
    "location": "Shasta County",
    "coordinates": {
      "lat": 40.92911,
      "lng": -121.6156
    },
    "country": "us",
    "city": "Burney",
    "state": "ca"
  },
  {
    "url": "http://www.bfro.net/GDB/show_report.asp?id=4614",
    "source": "BFRO",
    "source_url": "http://www.bfro.net",
    "source_reference": "4614",
    "name": "Bigfoot Report Class A 1994",
    "class": "A",
    "location": "Huerfano County",
    "coordinates": {
      "lat": 37.5969,
      "lng": -105.4826
    },
    "country": "us",
    "city": "Red Wing",
    "state": "co"
  },
  {
    "url": "http://www.bfro.net/GDB/show_report.asp?id=8514",
    "source": "BFRO",
    "source_url": "http://www.bfro.net",
    "source_reference": "8514",
    "name": "Bigfoot Report Class A 1994",
    "class": "A",
    "location": "Duval County",
    "coordinates": {
      "lat": 30.4544,
      "lng": -81.4189
    },
    "country": "us",
    "city": "Fort George Island",
    "state": "fl"
  },
  {
    "url": "http://www.bfro.net/GDB/show_report.asp?id=24800",
    "source": "BFRO",
    "source_url": "http://www.bfro.net",
    "source_reference": "24800",
    "name": "Bigfoot Report Class A 1994",
    "class": "A",
    "location": "Boone County",
    "coordinates": {
      "lat": 38.90649,
      "lng": -84.67017
    },
    "country": "us",
    "city": "Walton",
    "state": "ky"
  },
  {
    "url": "http://www.bfro.net/GDB/show_report.asp?id=18278",
    "source": "BFRO",
    "source_url": "http://www.bfro.net",
    "source_reference": "18278",
    "name": "Bigfoot Report Class A 1994",
    "class": "A",
    "location": "Scott County",
    "coordinates": {
      "lat": 37.286,
      "lng": -89.6075
    },
    "country": "us",
    "city": "Cape Girardeau",
    "state": "mo"
  },
  {
    "url": "http://www.bfro.net/GDB/show_report.asp?id=531",
    "source": "BFRO",
    "source_url": "http://www.bfro.net",
    "source_reference": "531",
    "name": "Bigfoot Report Class A 1994",
    "class": "A",
    "location": "Multnomah County",
    "coordinates": {
      "lat": 45.63893,
      "lng": -122.8889
    },
    "country": "us",
    "city": "Portland",
    "state": "or"
  },
  {
    "url": "http://www.bfro.net/GDB/show_report.asp?id=359",
    "source": "BFRO",
    "source_url": "http://www.bfro.net",
    "source_reference": "359",
    "name": "Bigfoot Report Class A 1994-95",
    "class": "A",
    "location": "Portage County",
    "coordinates": {
      "lat": 40.98596,
      "lng": -81.11642
    },
    "country": "us",
    "city": "Atwater",
    "state": "oh"
  },
  {
    "url": "http://www.bfro.net/GDB/show_report.asp?id=4380",
    "source": "BFRO",
    "source_url": "http://www.bfro.net",
    "source_reference": "4380",
    "name": "Bigfoot Report Class A 1994?",
    "class": "A",
    "location": "Lewis County",
    "coordinates": {
      "lat": 46.7002,
      "lng": -122.1983
    },
    "country": "us",
    "city": "Mineral",
    "state": "wa"
  },
  {
    "url": "http://www.bfro.net/GDB/show_report.asp?id=2917",
    "source": "BFRO",
    "source_url": "http://www.bfro.net",
    "source_reference": "2917",
    "name": "Bigfoot Report Class A 1995",
    "class": "A",
    "location": "Prince of Wales County",
    "coordinates": {
      "lat": 55.1872,
      "lng": -132.7982
    },
    "country": "us",
    "city": "Hydaburg",
    "state": "ak"
  },
  {
    "url": "http://www.bfro.net/GDB/show_report.asp?id=6541",
    "source": "BFRO",
    "source_url": "http://www.bfro.net",
    "source_reference": "6541",
    "name": "Bigfoot Report Class A 1995",
    "class": "A",
    "location": "Choctaw County",
    "coordinates": {
      "lat": 34.11306,
      "lng": -95.62278
    },
    "country": "us",
    "city": "Soper",
    "state": "ok"
  },
  {
    "url": "http://www.bfro.net/GDB/show_report.asp?id=7568",
    "source": "BFRO",
    "source_url": "http://www.bfro.net",
    "source_reference": "7568",
    "name": "Bigfoot Report Class A 1995",
    "class": "A",
    "location": "Delta County",
    "coordinates": {
      "lat": 33.26222,
      "lng": -95.82056
    },
    "country": "us",
    "city": "Horton",
    "state": "tx"
  },
  {
    "url": "http://www.bfro.net/GDB/show_report.asp?id=11260",
    "source": "BFRO",
    "source_url": "http://www.bfro.net",
    "source_reference": "11260",
    "name": "Bigfoot Report Class A 1995",
    "class": "A",
    "location": "Erath County",
    "coordinates": {
      "lat": 32.04417,
      "lng": -98.09234
    },
    "country": "us",
    "city": "Hico",
    "state": "tx"
  },
  {
    "url": "http://www.bfro.net/GDB/show_report.asp?id=16295",
    "source": "BFRO",
    "source_url": "http://www.bfro.net",
    "source_reference": "16295",
    "name": "Bigfoot Report Class A 1995",
    "class": "A",
    "location": "Kitsap County",
    "coordinates": {
      "lat": 47.45411,
      "lng": -122.3219
    },
    "country": "us",
    "city": "Seattle",
    "state": "wa"
  },
  {
    "url": "http://www.bfro.net/GDB/show_report.asp?id=6804",
    "source": "BFRO",
    "source_url": "http://www.bfro.net",
    "source_reference": "6804",
    "name": "Bigfoot Report Class A 1995 to 2003",
    "class": "A",
    "location": "Butler County",
    "coordinates": {
      "lat": 39.49695,
      "lng": -84.45905
    },
    "country": "us",
    "city": "Trenton",
    "state": "oh"
  },
  {
    "url": "http://www.bfro.net/GDB/show_report.asp?id=730",
    "source": "BFRO",
    "source_url": "http://www.bfro.net",
    "source_reference": "730",
    "name": "Bigfoot Report Class A 1996",
    "class": "A",
    "location": "Okaloosa County",
    "coordinates": {
      "lat": 30.51295,
      "lng": -86.5065
    },
    "country": "us",
    "city": "Valparaiso",
    "state": "fl"
  },
  {
    "url": "http://www.bfro.net/GDB/show_report.asp?id=4767",
    "source": "BFRO",
    "source_url": "http://www.bfro.net",
    "source_reference": "4767",
    "name": "Bigfoot Report Class A 1997",
    "class": "A",
    "location": "Perry County",
    "coordinates": {
      "lat": 30.97675,
      "lng": -89.0338
    },
    "country": "us",
    "city": "Whites Crossing",
    "state": "ms"
  },
  {
    "url": "http://www.bfro.net/GDB/show_report.asp?id=4951",
    "source": "BFRO",
    "source_url": "http://www.bfro.net",
    "source_reference": "4951",
    "name": "Bigfoot Report Class A 1997",
    "class": "A",
    "location": "Jefferson County",
    "coordinates": {
      "lat": 40.39103,
      "lng": -80.6937
    },
    "country": "us",
    "city": "Steubenville",
    "state": "oh"
  },
  {
    "url": "http://www.bfro.net/GDB/show_report.asp?id=2788",
    "source": "BFRO",
    "source_url": "http://www.bfro.net",
    "source_reference": "2788",
    "name": "Bigfoot Report Class A 1997",
    "class": "A",
    "location": "Payne County",
    "coordinates": {
      "lat": 36.02306,
      "lng": -97.1225
    },
    "country": "us",
    "city": "Perkins",
    "state": "ok"
  },
  {
    "url": "http://www.bfro.net/GDB/show_report.asp?id=3080",
    "source": "BFRO",
    "source_url": "http://www.bfro.net",
    "source_reference": "3080",
    "name": "Bigfoot Report Class A 1997-2001",
    "class": "A",
    "location": "Tuscarawas County",
    "coordinates": {
      "lat": 40.27488,
      "lng": -81.51749
    },
    "country": "us",
    "city": "Newcomerstown",
    "state": "oh"
  },
  {
    "url": "http://www.bfro.net/GDB/show_report.asp?id=25622",
    "source": "BFRO",
    "source_url": "http://www.bfro.net",
    "source_reference": "25622",
    "name": "Bigfoot Report Class A 1997/1998",
    "class": "A",
    "location": "Oscoda County",
    "coordinates": {
      "lat": 44.5256,
      "lng": -84.06493
    },
    "country": "us",
    "city": "Rose City",
    "state": "mi"
  },
  {
    "url": "http://www.bfro.net/GDB/show_report.asp?id=186",
    "source": "BFRO",
    "source_url": "http://www.bfro.net",
    "source_reference": "186",
    "name": "Bigfoot Report Class A 1998",
    "class": "A",
    "location": "Saline County",
    "coordinates": {
      "lat": 34.55056,
      "lng": -92.34083
    },
    "country": "us",
    "city": "Little Rock",
    "state": "ar"
  },
  {
    "url": "http://www.bfro.net/GDB/show_report.asp?id=5607",
    "source": "BFRO",
    "source_url": "http://www.bfro.net",
    "source_reference": "5607",
    "name": "Bigfoot Report Class A 1998",
    "class": "A",
    "location": "Polk County",
    "coordinates": {
      "lat": 34.70694,
      "lng": -94.45417
    },
    "country": "us",
    "city": "Mena",
    "state": "ar"
  },
  {
    "url": "http://www.bfro.net/GDB/show_report.asp?id=17089",
    "source": "BFRO",
    "source_url": "http://www.bfro.net",
    "source_reference": "17089",
    "name": "Bigfoot Report Class A 1998",
    "class": "A",
    "location": "Liberty County",
    "coordinates": {
      "lat": 32.0391,
      "lng": -81.436
    },
    "country": "us",
    "city": "Meldrim",
    "state": "ga"
  },
  {
    "url": "http://www.bfro.net/GDB/show_report.asp?id=7679",
    "source": "BFRO",
    "source_url": "http://www.bfro.net",
    "source_reference": "7679",
    "name": "Bigfoot Report Class A 1998",
    "class": "A",
    "location": "Grayson County",
    "coordinates": {
      "lat": 33.69,
      "lng": -96.84806
    },
    "country": "us",
    "city": "Sadler",
    "state": "tx"
  },
  {
    "url": "http://www.bfro.net/GDB/show_report.asp?id=20940",
    "source": "BFRO",
    "source_url": "http://www.bfro.net",
    "source_reference": "20940",
    "name": "Bigfoot Report Class A 1998-2000",
    "class": "A",
    "location": "Duval County",
    "coordinates": {
      "lat": 30.23693,
      "lng": -81.54172
    },
    "country": "us",
    "city": "Jacksonville",
    "state": "fl"
  },
  {
    "url": "http://www.bfro.net/GDB/show_report.asp?id=11162",
    "source": "BFRO",
    "source_url": "http://www.bfro.net",
    "source_reference": "11162",
    "name": "Bigfoot Report Class A 1998-2004",
    "class": "A",
    "location": "Santa Cruz County",
    "coordinates": {
      "lat": 37,
      "lng": -121.7
    },
    "country": "us",
    "city": "Watsonville",
    "state": "ca"
  },
  {
    "url": "http://www.bfro.net/GDB/show_report.asp?id=25238",
    "source": "BFRO",
    "source_url": "http://www.bfro.net",
    "source_reference": "25238",
    "name": "Bigfoot Report Class A 1999",
    "class": "A",
    "location": "Talladega County",
    "coordinates": {
      "lat": 33.36305,
      "lng": -86.17122
    },
    "country": "us",
    "city": "Talladega",
    "state": "al"
  },
  {
    "url": "http://www.bfro.net/GDB/show_report.asp?id=24544",
    "source": "BFRO",
    "source_url": "http://www.bfro.net",
    "source_reference": "24544",
    "name": "Bigfoot Report Class A 1999",
    "class": "A",
    "location": "Pulaski County",
    "coordinates": {
      "lat": 37.289,
      "lng": -88.9963
    },
    "country": "us",
    "city": "Karnak",
    "state": "il"
  },
  {
    "url": "http://www.bfro.net/GDB/show_report.asp?id=8715",
    "source": "BFRO",
    "source_url": "http://www.bfro.net",
    "source_reference": "8715",
    "name": "Bigfoot Report Class A 1999-2000",
    "class": "A",
    "location": "Grant County",
    "coordinates": {
      "lat": 38.528,
      "lng": -84.588
    },
    "country": "us",
    "city": "Corinth",
    "state": "ky"
  },
  {
    "url": "http://www.bfro.net/GDB/show_report.asp?id=3028",
    "source": "BFRO",
    "source_url": "http://www.bfro.net",
    "source_reference": "3028",
    "name": "Bigfoot Report Class A 2000",
    "class": "A",
    "location": "Morgan County",
    "coordinates": {
      "lat": 34.4881,
      "lng": -86.6333
    },
    "country": "us",
    "city": "Laceys Spring",
    "state": "al"
  },
  {
    "url": "http://www.bfro.net/GDB/show_report.asp?id=27076",
    "source": "BFRO",
    "source_url": "http://www.bfro.net",
    "source_reference": "27076",
    "name": "Bigfoot Report Class A 2000",
    "class": "A",
    "location": "Alachua County",
    "coordinates": {
      "lat": 29.58358,
      "lng": -82.33316
    },
    "country": "us",
    "city": "Micanopy",
    "state": "fl"
  },
  {
    "url": "http://www.bfro.net/GDB/show_report.asp?id=7907",
    "source": "BFRO",
    "source_url": "http://www.bfro.net",
    "source_reference": "7907",
    "name": "Bigfoot Report Class A 2000-2003",
    "class": "A",
    "location": "Fannin County",
    "coordinates": {
      "lat": 33.61666,
      "lng": -95.90694
    },
    "country": "us",
    "city": "Honey Grove",
    "state": "tx"
  },
  {
    "url": "http://www.bfro.net/GDB/show_report.asp?id=3296",
    "source": "BFRO",
    "source_url": "http://www.bfro.net",
    "source_reference": "3296",
    "name": "Bigfoot Report Class A 2001",
    "class": "A",
    "location": "Limestone County",
    "coordinates": {
      "lat": 34.6802,
      "lng": -87.00665
    },
    "country": "us",
    "city": "Athens",
    "state": "al"
  },
  {
    "url": "http://www.bfro.net/GDB/show_report.asp?id=11986",
    "source": "BFRO",
    "source_url": "http://www.bfro.net",
    "source_reference": "11986",
    "name": "Bigfoot Report Class A 2001",
    "class": "A",
    "location": "Shasta County",
    "coordinates": {
      "lat": 40.7974,
      "lng": -122.278
    },
    "country": "us",
    "city": "Redding",
    "state": "ca"
  },
  {
    "url": "http://www.bfro.net/GDB/show_report.asp?id=16303",
    "source": "BFRO",
    "source_url": "http://www.bfro.net",
    "source_reference": "16303",
    "name": "Bigfoot Report Class A 2001",
    "class": "A",
    "location": "Collier County",
    "coordinates": {
      "lat": 26.0079,
      "lng": -81.22285
    },
    "country": "us",
    "city": "Jerome",
    "state": "fl"
  },
  {
    "url": "http://www.bfro.net/GDB/show_report.asp?id=8595",
    "source": "BFRO",
    "source_url": "http://www.bfro.net",
    "source_reference": "8595",
    "name": "Bigfoot Report Class A 2003",
    "class": "A",
    "location": "El Dorado County",
    "coordinates": {
      "lat": 38.72139,
      "lng": -120.5836
    },
    "country": "us",
    "city": "Pollock Pines",
    "state": "ca"
  },
  {
    "url": "http://www.bfro.net/GDB/show_report.asp?id=18065",
    "source": "BFRO",
    "source_url": "http://www.bfro.net",
    "source_reference": "18065",
    "name": "Bigfoot Report Class A 2003",
    "class": "A",
    "location": "Clay County",
    "coordinates": {
      "lat": 30.10139,
      "lng": -81.88324
    },
    "country": "us",
    "city": "Middleburg",
    "state": "fl"
  },
  {
    "url": "http://www.bfro.net/GDB/show_report.asp?id=11168",
    "source": "BFRO",
    "source_url": "http://www.bfro.net",
    "source_reference": "11168",
    "name": "Bigfoot Report Class A 2003",
    "class": "A",
    "location": "Burlington County",
    "coordinates": {
      "lat": 40.16465,
      "lng": -74.68135
    },
    "country": "us",
    "city": "Crosswicks",
    "state": "nj"
  },
  {
    "url": "http://www.bfro.net/GDB/show_report.asp?id=11656",
    "source": "BFRO",
    "source_url": "http://www.bfro.net",
    "source_reference": "11656",
    "name": "Bigfoot Report Class A 2004",
    "class": "A",
    "location": "El Dorado County",
    "coordinates": {
      "lat": 38.90333,
      "lng": -120.6033
    },
    "country": "us",
    "city": "Georgetown",
    "state": "ca"
  },
  {
    "url": "http://www.bfro.net/GDB/show_report.asp?id=10918",
    "source": "BFRO",
    "source_url": "http://www.bfro.net",
    "source_reference": "10918",
    "name": "Bigfoot Report Class A 2004",
    "class": "A",
    "location": "Passaic County",
    "coordinates": {
      "lat": 41.08335,
      "lng": -74.321
    },
    "country": "us",
    "city": "Ringwood",
    "state": "nj"
  },
  {
    "url": "http://www.bfro.net/GDB/show_report.asp?id=19073",
    "source": "BFRO",
    "source_url": "http://www.bfro.net",
    "source_reference": "19073",
    "name": "Bigfoot Report Class A 2004",
    "class": "A",
    "location": "Franklin County",
    "coordinates": {
      "lat": 33.36867,
      "lng": -95.23958
    },
    "country": "us",
    "city": "Talco",
    "state": "tx"
  },
  {
    "url": "http://www.bfro.net/GDB/show_report.asp?id=21839",
    "source": "BFRO",
    "source_url": "http://www.bfro.net",
    "source_reference": "21839",
    "name": "Bigfoot Report Class A 2005",
    "class": "A",
    "location": "Ravalli County",
    "coordinates": {
      "lat": 45.82285,
      "lng": -114.0125
    },
    "country": "us",
    "city": "Sula",
    "state": "mt"
  },
  {
    "url": "http://www.bfro.net/GDB/show_report.asp?id=23104",
    "source": "BFRO",
    "source_url": "http://www.bfro.net",
    "source_reference": "23104",
    "name": "Bigfoot Report Class A 2006",
    "class": "A",
    "location": "Macon County",
    "coordinates": {
      "lat": 39.781,
      "lng": -88.867
    },
    "country": "us",
    "city": "Mount Zion",
    "state": "il"
  },
  {
    "url": "http://www.bfro.net/GDB/show_report.asp?id=26646",
    "source": "BFRO",
    "source_url": "http://www.bfro.net",
    "source_reference": "26646",
    "name": "Bigfoot Report Class A 2006",
    "class": "A",
    "location": "Josephine County",
    "coordinates": {
      "lat": 42.16024,
      "lng": -123.6216
    },
    "country": "us",
    "city": "Cave Junction",
    "state": "or"
  },
  {
    "url": "http://www.bfro.net/GDB/show_report.asp?id=22821",
    "source": "BFRO",
    "source_url": "http://www.bfro.net",
    "source_reference": "22821",
    "name": "Bigfoot Report Class A 2007",
    "class": "A",
    "location": "",
    "coordinates": {
      "lat": 48.60385,
      "lng": -93.47855
    },
    "country": "us",
    "city": "International Falls",
    "state": "mn"
  },
  {
    "url": "http://www.bfro.net/GDB/show_report.asp?id=23911",
    "source": "BFRO",
    "source_url": "http://www.bfro.net",
    "source_reference": "23911",
    "name": "Bigfoot Report Class A 2007",
    "class": "A",
    "location": "Pickens County",
    "coordinates": {
      "lat": 34.39965,
      "lng": -84.383
    },
    "country": "us",
    "city": "Nelson",
    "state": "ga"
  },
  {
    "url": "http://www.bfro.net/GDB/show_report.asp?id=27024",
    "source": "BFRO",
    "source_url": "http://www.bfro.net",
    "source_reference": "27024",
    "name": "Bigfoot Report Class A 2007",
    "class": "A",
    "location": "Daviess County",
    "coordinates": {
      "lat": 37.64966,
      "lng": -87.01657
    },
    "country": "us",
    "city": "Utica",
    "state": "ky"
  },
  {
    "url": "http://www.bfro.net/GDB/show_report.asp?id=23762",
    "source": "BFRO",
    "source_url": "http://www.bfro.net",
    "source_reference": "23762",
    "name": "Bigfoot Report Class A 2008",
    "class": "A",
    "location": "Greenbrier County",
    "coordinates": {
      "lat": 37.9937,
      "lng": -80.3616
    },
    "country": "us",
    "city": "Renick",
    "state": "wv"
  },
  {
    "url": "http://www.bfro.net/GDB/show_report.asp?id=9785",
    "source": "BFRO",
    "source_url": "http://www.bfro.net",
    "source_reference": "9785",
    "name": "Bigfoot Report Class A 71, 83, 94",
    "class": "A",
    "location": "Wasco County",
    "coordinates": {
      "lat": 44.8464,
      "lng": -121.1537
    },
    "country": "us",
    "city": "Warm Springs",
    "state": "or"
  },
  {
    "url": "http://www.bfro.net/GDB/show_report.asp?id=577",
    "source": "BFRO",
    "source_url": "http://www.bfro.net",
    "source_reference": "577",
    "name": "Bigfoot Report Class A 79, 80, 99",
    "class": "A",
    "location": "Colbert County",
    "coordinates": {
      "lat": 34.80405,
      "lng": -87.50905
    },
    "country": "us",
    "city": "Muscle Shoals",
    "state": "al"
  },
  {
    "url": "http://www.bfro.net/GDB/show_report.asp?id=20415",
    "source": "BFRO",
    "source_url": "http://www.bfro.net",
    "source_reference": "20415",
    "name": "Bigfoot Report Class A 87 or 88",
    "class": "A",
    "location": "",
    "coordinates": {
      "lat": 49.0922,
      "lng": -122.6089
    },
    "country": "us",
    "city": "Custer",
    "state": "wa"
  },
  {
    "url": "http://www.bfro.net/GDB/show_report.asp?id=2549",
    "source": "BFRO",
    "source_url": "http://www.bfro.net",
    "source_reference": "2549",
    "name": "Bigfoot Report Class A ?84-86?",
    "class": "A",
    "location": "Darlington County",
    "coordinates": {
      "lat": 36.86345,
      "lng": -79.65835
    },
    "country": "us",
    "city": "Penhook",
    "state": "va"
  },
  {
    "url": "http://www.bfro.net/GDB/show_report.asp?id=15251",
    "source": "BFRO",
    "source_url": "http://www.bfro.net",
    "source_reference": "15251",
    "name": "Bigfoot Report Class A About 1995",
    "class": "A",
    "location": "Sangamon County",
    "coordinates": {
      "lat": 39.853,
      "lng": -89.5
    },
    "country": "us",
    "city": "Sherman",
    "state": "il"
  },
  {
    "url": "http://www.bfro.net/GDB/show_report.asp?id=14329",
    "source": "BFRO",
    "source_url": "http://www.bfro.net",
    "source_reference": "14329",
    "name": "Bigfoot Report Class A Apr 1934",
    "class": "A",
    "location": "",
    "coordinates": {
      "lat": 49.24,
      "lng": -121.94
    },
    "country": "us",
    "city": "Maple Falls",
    "state": "wa"
  },
  {
    "url": "http://www.bfro.net/GDB/show_report.asp?id=24238",
    "source": "BFRO",
    "source_url": "http://www.bfro.net",
    "source_reference": "24238",
    "name": "Bigfoot Report Class A Apr 1962",
    "class": "A",
    "location": "Schoolcraft County",
    "coordinates": {
      "lat": 45.964,
      "lng": -86.1437
    },
    "country": "us",
    "city": "Manistique",
    "state": "mi"
  },
  {
    "url": "http://www.bfro.net/GDB/show_report.asp?id=751",
    "source": "BFRO",
    "source_url": "http://www.bfro.net",
    "source_reference": "751",
    "name": "Bigfoot Report Class A Apr 1962",
    "class": "A",
    "location": "Ward County",
    "coordinates": {
      "lat": 48.25422,
      "lng": -101.3166
    },
    "country": "us",
    "city": "Minot",
    "state": "nd"
  },
  {
    "url": "http://www.bfro.net/GDB/show_report.asp?id=23645",
    "source": "BFRO",
    "source_url": "http://www.bfro.net",
    "source_reference": "23645",
    "name": "Bigfoot Report Class A Apr 1970",
    "class": "A",
    "location": "Sevier County",
    "coordinates": {
      "lat": 35.68449,
      "lng": -83.53575
    },
    "country": "us",
    "city": "Gatlinburg",
    "state": "tn"
  },
  {
    "url": "http://www.bfro.net/GDB/show_report.asp?id=12247",
    "source": "BFRO",
    "source_url": "http://www.bfro.net",
    "source_reference": "12247",
    "name": "Bigfoot Report Class A Apr 1974",
    "class": "A",
    "location": "Monterey County",
    "coordinates": {
      "lat": 35.5565,
      "lng": -121.2919
    },
    "country": "us",
    "city": "San Simeon",
    "state": "ca"
  },
  {
    "url": "http://www.bfro.net/GDB/show_report.asp?id=11487",
    "source": "BFRO",
    "source_url": "http://www.bfro.net",
    "source_reference": "11487",
    "name": "Bigfoot Report Class A Apr 1974",
    "class": "A",
    "location": "Horry County",
    "coordinates": {
      "lat": 33.72,
      "lng": -78.9211
    },
    "country": "us",
    "city": "Myrtle Beach",
    "state": "sc"
  },
  {
    "url": "http://www.bfro.net/GDB/show_report.asp?id=1651",
    "source": "BFRO",
    "source_url": "http://www.bfro.net",
    "source_reference": "1651",
    "name": "Bigfoot Report Class A Apr 1978",
    "class": "A",
    "location": "Skamania County",
    "coordinates": {
      "lat": 45.62778,
      "lng": -122.0194
    },
    "country": "us",
    "city": "Warrendale",
    "state": "or"
  },
  {
    "url": "http://www.bfro.net/GDB/show_report.asp?id=2399",
    "source": "BFRO",
    "source_url": "http://www.bfro.net",
    "source_reference": "2399",
    "name": "Bigfoot Report Class A Apr 1979",
    "class": "A",
    "location": "Harrison County",
    "coordinates": {
      "lat": 32.68,
      "lng": -94.3
    },
    "country": "us",
    "city": "Jefferson",
    "state": "tx"
  },
  {
    "url": "http://www.bfro.net/GDB/show_report.asp?id=3281",
    "source": "BFRO",
    "source_url": "http://www.bfro.net",
    "source_reference": "3281",
    "name": "Bigfoot Report Class A Apr 1979",
    "class": "A",
    "location": "Thurston County",
    "coordinates": {
      "lat": 46.96515,
      "lng": -122.69
    },
    "country": "us",
    "city": "Olympia",
    "state": "wa"
  },
  {
    "url": "http://www.bfro.net/GDB/show_report.asp?id=13662",
    "source": "BFRO",
    "source_url": "http://www.bfro.net",
    "source_reference": "13662",
    "name": "Bigfoot Report Class A Apr 1979 or 80",
    "class": "A",
    "location": "Steuben County",
    "coordinates": {
      "lat": 42.28045,
      "lng": -77.60525
    },
    "country": "us",
    "city": "Canisteo",
    "state": "ny"
  },
  {
    "url": "http://www.bfro.net/GDB/show_report.asp?id=10892",
    "source": "BFRO",
    "source_url": "http://www.bfro.net",
    "source_reference": "10892",
    "name": "Bigfoot Report Class A Apr 1980",
    "class": "A",
    "location": "Fulton County",
    "coordinates": {
      "lat": 40.5332,
      "lng": -90.0594
    },
    "country": "us",
    "city": "Canton",
    "state": "il"
  },
  {
    "url": "http://www.bfro.net/GDB/show_report.asp?id=1707",
    "source": "BFRO",
    "source_url": "http://www.bfro.net",
    "source_reference": "1707",
    "name": "Bigfoot Report Class A Apr 1980",
    "class": "A",
    "location": "Skamania County",
    "coordinates": {
      "lat": 45.69833,
      "lng": -121.7753
    },
    "country": "us",
    "city": "Wyeth",
    "state": "or"
  },
  {
    "url": "http://www.bfro.net/GDB/show_report.asp?id=2404",
    "source": "BFRO",
    "source_url": "http://www.bfro.net",
    "source_reference": "2404",
    "name": "Bigfoot Report Class A Apr 1981",
    "class": "A",
    "location": "",
    "coordinates": {
      "lat": 50.25,
      "lng": -98.03333
    },
    "country": "us",
    "city": "Neche",
    "state": "nd"
  },
  {
    "url": "http://www.bfro.net/GDB/show_report.asp?id=25444",
    "source": "BFRO",
    "source_url": "http://www.bfro.net",
    "source_reference": "25444",
    "name": "Bigfoot Report Class A Apr 1982",
    "class": "A",
    "location": "Santa Barbara County",
    "coordinates": {
      "lat": 34.73389,
      "lng": -119.9254
    },
    "country": "us",
    "city": "Santa Ynez",
    "state": "ca"
  },
  {
    "url": "http://www.bfro.net/GDB/show_report.asp?id=4143",
    "source": "BFRO",
    "source_url": "http://www.bfro.net",
    "source_reference": "4143",
    "name": "Bigfoot Report Class A Apr 1982",
    "class": "A",
    "location": "Red River County",
    "coordinates": {
      "lat": 33.64555,
      "lng": -95.16028
    },
    "country": "us",
    "city": "Bagwell",
    "state": "tx"
  },
  {
    "url": "http://www.bfro.net/GDB/show_report.asp?id=3332",
    "source": "BFRO",
    "source_url": "http://www.bfro.net",
    "source_reference": "3332",
    "name": "Bigfoot Report Class A Apr 1983",
    "class": "A",
    "location": "Henderson County",
    "coordinates": {
      "lat": 35.33975,
      "lng": -82.443
    },
    "country": "us",
    "city": "Hendersonville",
    "state": "nc"
  },
  {
    "url": "http://www.bfro.net/GDB/show_report.asp?id=3519",
    "source": "BFRO",
    "source_url": "http://www.bfro.net",
    "source_reference": "3519",
    "name": "Bigfoot Report Class A Apr 1984",
    "class": "A",
    "location": "Clark County",
    "coordinates": {
      "lat": 33.88861,
      "lng": -93.20389
    },
    "country": "us",
    "city": "Beirne",
    "state": "ar"
  },
  {
    "url": "http://www.bfro.net/GDB/show_report.asp?id=2285",
    "source": "BFRO",
    "source_url": "http://www.bfro.net",
    "source_reference": "2285",
    "name": "Bigfoot Report Class A Apr 1984",
    "class": "A",
    "location": "Wythe County",
    "coordinates": {
      "lat": 37.22647,
      "lng": -81.09017
    },
    "country": "us",
    "city": "Rocky Gap",
    "state": "va"
  },
  {
    "url": "http://www.bfro.net/GDB/show_report.asp?id=10001",
    "source": "BFRO",
    "source_url": "http://www.bfro.net",
    "source_reference": "10001",
    "name": "Bigfoot Report Class A Apr 1987",
    "class": "A",
    "location": "",
    "coordinates": {
      "lat": 59.61,
      "lng": -123.12
    },
    "country": "us"
  },
  {
    "url": "http://www.bfro.net/GDB/show_report.asp?id=10157",
    "source": "BFRO",
    "source_url": "http://www.bfro.net",
    "source_reference": "10157",
    "name": "Bigfoot Report Class A Apr 1988",
    "class": "A",
    "location": "Panola County",
    "coordinates": {
      "lat": 32.01083,
      "lng": -94.14306
    },
    "country": "us",
    "city": "Paxton",
    "state": "tx"
  },
  {
    "url": "http://www.bfro.net/GDB/show_report.asp?id=15630",
    "source": "BFRO",
    "source_url": "http://www.bfro.net",
    "source_reference": "15630",
    "name": "Bigfoot Report Class A Apr 1989",
    "class": "A",
    "location": "San Juan County",
    "coordinates": {
      "lat": 37.83905,
      "lng": -107.7247
    },
    "country": "us",
    "city": "Silverton",
    "state": "co"
  },
  {
    "url": "http://www.bfro.net/GDB/show_report.asp?id=18297",
    "source": "BFRO",
    "source_url": "http://www.bfro.net",
    "source_reference": "18297",
    "name": "Bigfoot Report Class A Apr 1991",
    "class": "A",
    "location": "Laurel County",
    "coordinates": {
      "lat": 37.06226,
      "lng": -83.9769
    },
    "country": "us",
    "city": "London",
    "state": "ky"
  },
  {
    "url": "http://www.bfro.net/GDB/show_report.asp?id=1395",
    "source": "BFRO",
    "source_url": "http://www.bfro.net",
    "source_reference": "1395",
    "name": "Bigfoot Report Class A Apr 1991",
    "class": "A",
    "location": "Klickitat County",
    "coordinates": {
      "lat": 45.75806,
      "lng": -121.2303
    },
    "country": "us",
    "city": "Lyle",
    "state": "wa"
  },
  {
    "url": "http://www.bfro.net/GDB/show_report.asp?id=4859",
    "source": "BFRO",
    "source_url": "http://www.bfro.net",
    "source_reference": "4859",
    "name": "Bigfoot Report Class A Apr 1992",
    "class": "A",
    "location": "King County",
    "coordinates": {
      "lat": 47.288,
      "lng": -121.9658
    },
    "country": "us",
    "city": "Cumberland",
    "state": "wa"
  },
  {
    "url": "http://www.bfro.net/GDB/show_report.asp?id=1055",
    "source": "BFRO",
    "source_url": "http://www.bfro.net",
    "source_reference": "1055",
    "name": "Bigfoot Report Class A Apr 1993",
    "class": "A",
    "location": "El Dorado County",
    "coordinates": {
      "lat": 38.86,
      "lng": -120.1358
    },
    "country": "us",
    "city": "South Lake Tahoe",
    "state": "ca"
  },
  {
    "url": "http://www.bfro.net/GDB/show_report.asp?id=5801",
    "source": "BFRO",
    "source_url": "http://www.bfro.net",
    "source_reference": "5801",
    "name": "Bigfoot Report Class A Apr 1994",
    "class": "A",
    "location": "Escambia County",
    "coordinates": {
      "lat": 30.9905,
      "lng": -87.1814
    },
    "country": "us",
    "city": "Pollard",
    "state": "al"
  },
  {
    "url": "http://www.bfro.net/GDB/show_report.asp?id=8316",
    "source": "BFRO",
    "source_url": "http://www.bfro.net",
    "source_reference": "8316",
    "name": "Bigfoot Report Class A Apr 1994",
    "class": "A",
    "location": "Clay County",
    "coordinates": {
      "lat": 29.98085,
      "lng": -81.80005
    },
    "country": "us",
    "city": "Penney Farms",
    "state": "fl"
  },
  {
    "url": "http://www.bfro.net/GDB/show_report.asp?id=7263",
    "source": "BFRO",
    "source_url": "http://www.bfro.net",
    "source_reference": "7263",
    "name": "Bigfoot Report Class A Apr 1994",
    "class": "A",
    "location": "Deschutes County",
    "coordinates": {
      "lat": 44.2157,
      "lng": -121.4755
    },
    "country": "us",
    "city": "Bend",
    "state": "or"
  },
  {
    "url": "http://www.bfro.net/GDB/show_report.asp?id=7229",
    "source": "BFRO",
    "source_url": "http://www.bfro.net",
    "source_reference": "7229",
    "name": "Bigfoot Report Class A Apr 1994",
    "class": "A",
    "location": "Snohomish County",
    "coordinates": {
      "lat": 47.8573,
      "lng": -121.6352
    },
    "country": "us",
    "city": "Gold Bar",
    "state": "wa"
  },
  {
    "url": "http://www.bfro.net/GDB/show_report.asp?id=1077",
    "source": "BFRO",
    "source_url": "http://www.bfro.net",
    "source_reference": "1077",
    "name": "Bigfoot Report Class A Apr 1995",
    "class": "A",
    "location": "Snohomish County",
    "coordinates": {
      "lat": 47.8925,
      "lng": -122.0111
    },
    "country": "us",
    "city": "Snohomish",
    "state": "wa"
  },
  {
    "url": "http://www.bfro.net/GDB/show_report.asp?id=8502",
    "source": "BFRO",
    "source_url": "http://www.bfro.net",
    "source_reference": "8502",
    "name": "Bigfoot Report Class A Apr 1995",
    "class": "A",
    "location": "St. Croix County",
    "coordinates": {
      "lat": 45.1097,
      "lng": -92.4573
    },
    "country": "us",
    "city": "New Richmond",
    "state": "wi"
  },
  {
    "url": "http://www.bfro.net/GDB/show_report.asp?id=919",
    "source": "BFRO",
    "source_url": "http://www.bfro.net",
    "source_reference": "919",
    "name": "Bigfoot Report Class A Apr 1996",
    "class": "A",
    "location": "El Dorado County",
    "coordinates": {
      "lat": 38.93333,
      "lng": -119.9833
    },
    "country": "us",
    "city": "South Lake Tahoe",
    "state": "ca"
  },
  {
    "url": "http://www.bfro.net/GDB/show_report.asp?id=18122",
    "source": "BFRO",
    "source_url": "http://www.bfro.net",
    "source_reference": "18122",
    "name": "Bigfoot Report Class A Apr 1997",
    "class": "A",
    "location": "Orleans County",
    "coordinates": {
      "lat": 43.22649,
      "lng": -78.3253
    },
    "country": "us",
    "city": "Medina",
    "state": "ny"
  },
  {
    "url": "http://www.bfro.net/GDB/show_report.asp?id=1361",
    "source": "BFRO",
    "source_url": "http://www.bfro.net",
    "source_reference": "1361",
    "name": "Bigfoot Report Class A Apr 1998",
    "class": "A",
    "location": "Fremont County",
    "coordinates": {
      "lat": 38.54166,
      "lng": -104.9908
    },
    "country": "us",
    "city": "Colorado Springs",
    "state": "co"
  },
  {
    "url": "http://www.bfro.net/GDB/show_report.asp?id=12528",
    "source": "BFRO",
    "source_url": "http://www.bfro.net",
    "source_reference": "12528",
    "name": "Bigfoot Report Class A Apr 1998",
    "class": "A",
    "location": "Ripley County",
    "coordinates": {
      "lat": 36.66708,
      "lng": -90.9525
    },
    "country": "us",
    "city": "Bennett",
    "state": "mo"
  },
  {
    "url": "http://www.bfro.net/GDB/show_report.asp?id=9924",
    "source": "BFRO",
    "source_url": "http://www.bfro.net",
    "source_reference": "9924",
    "name": "Bigfoot Report Class A Apr 1998",
    "class": "A",
    "location": "Henderson County",
    "coordinates": {
      "lat": 32.16139,
      "lng": -95.6
    },
    "country": "us",
    "city": "Moore Station",
    "state": "tx"
  },
  {
    "url": "http://www.bfro.net/GDB/show_report.asp?id=1458",
    "source": "BFRO",
    "source_url": "http://www.bfro.net",
    "source_reference": "1458",
    "name": "Bigfoot Report Class A Apr 1998/2000",
    "class": "A",
    "location": "La Salle County",
    "coordinates": {
      "lat": 31.6825,
      "lng": -92.3104
    },
    "country": "us",
    "city": "Little Creek",
    "state": "la"
  },
  {
    "url": "http://www.bfro.net/GDB/show_report.asp?id=15479",
    "source": "BFRO",
    "source_url": "http://www.bfro.net",
    "source_reference": "15479",
    "name": "Bigfoot Report Class A Apr 1999",
    "class": "A",
    "location": "Roscommon County",
    "coordinates": {
      "lat": 44.29188,
      "lng": -84.72922
    },
    "country": "us",
    "city": "Houghton Lake",
    "state": "mi"
  },
  {
    "url": "http://www.bfro.net/GDB/show_report.asp?id=16294",
    "source": "BFRO",
    "source_url": "http://www.bfro.net",
    "source_reference": "16294",
    "name": "Bigfoot Report Class A Apr 1999",
    "class": "A",
    "location": "Jefferson County",
    "coordinates": {
      "lat": 38.22635,
      "lng": -90.39488
    },
    "country": "us",
    "city": "Festus",
    "state": "mo"
  },
  {
    "url": "http://www.bfro.net/GDB/show_report.asp?id=4176",
    "source": "BFRO",
    "source_url": "http://www.bfro.net",
    "source_reference": "4176",
    "name": "Bigfoot Report Class A Apr 1999",
    "class": "A",
    "location": "Adams County",
    "coordinates": {
      "lat": 38.83859,
      "lng": -83.28128
    },
    "country": "us",
    "city": "Peebles",
    "state": "oh"
  },
  {
    "url": "http://www.bfro.net/GDB/show_report.asp?id=9387",
    "source": "BFRO",
    "source_url": "http://www.bfro.net",
    "source_reference": "9387",
    "name": "Bigfoot Report Class A Apr 1999",
    "class": "A",
    "location": "Newton County",
    "coordinates": {
      "lat": 30.72028,
      "lng": -93.61667
    },
    "country": "us",
    "city": "Bon Wier",
    "state": "tx"
  },
  {
    "url": "http://www.bfro.net/GDB/show_report.asp?id=2017",
    "source": "BFRO",
    "source_url": "http://www.bfro.net",
    "source_reference": "2017",
    "name": "Bigfoot Report Class A Apr 1999",
    "class": "A",
    "location": "Lewis County",
    "coordinates": {
      "lat": 46.61583,
      "lng": -122.4369
    },
    "country": "us",
    "city": "Morton",
    "state": "wa"
  },
  {
    "url": "http://www.bfro.net/GDB/show_report.asp?id=1202",
    "source": "BFRO",
    "source_url": "http://www.bfro.net",
    "source_reference": "1202",
    "name": "Bigfoot Report Class A Apr 1999",
    "class": "A",
    "location": "Marion County",
    "coordinates": {
      "lat": 39.54114,
      "lng": -80.11329
    },
    "country": "us",
    "city": "Pleasant View",
    "state": "wv"
  },
  {
    "url": "http://www.bfro.net/GDB/show_report.asp?id=1355",
    "source": "BFRO",
    "source_url": "http://www.bfro.net",
    "source_reference": "1355",
    "name": "Bigfoot Report Class A Apr 2000",
    "class": "A",
    "location": "Eagle County",
    "coordinates": {
      "lat": 39.6632,
      "lng": -106.8085
    },
    "country": "us",
    "city": "Eagle",
    "state": "co"
  },
  {
    "url": "http://www.bfro.net/GDB/show_report.asp?id=8591",
    "source": "BFRO",
    "source_url": "http://www.bfro.net",
    "source_reference": "8591",
    "name": "Bigfoot Report Class A Apr 2000",
    "class": "A",
    "location": "Muskogee County",
    "coordinates": {
      "lat": 35.7575,
      "lng": -95.60667
    },
    "country": "us",
    "city": "Taft",
    "state": "ok"
  },
  {
    "url": "http://www.bfro.net/GDB/show_report.asp?id=1776",
    "source": "BFRO",
    "source_url": "http://www.bfro.net",
    "source_reference": "1776",
    "name": "Bigfoot Report Class A Apr 2000",
    "class": "A",
    "location": "Lewis County",
    "coordinates": {
      "lat": 46.55861,
      "lng": -122.2739
    },
    "country": "us",
    "city": "Morton",
    "state": "wa"
  },
  {
    "url": "http://www.bfro.net/GDB/show_report.asp?id=1777",
    "source": "BFRO",
    "source_url": "http://www.bfro.net",
    "source_reference": "1777",
    "name": "Bigfoot Report Class A Apr 2000",
    "class": "A",
    "location": "Lewis County",
    "coordinates": {
      "lat": 46.55861,
      "lng": -122.2739
    },
    "country": "us",
    "city": "Morton",
    "state": "wa"
  },
  {
    "url": "http://www.bfro.net/GDB/show_report.asp?id=24646",
    "source": "BFRO",
    "source_url": "http://www.bfro.net",
    "source_reference": "24646",
    "name": "Bigfoot Report Class A Apr 2001",
    "class": "A",
    "location": "Lowndes County",
    "coordinates": {
      "lat": 32.184,
      "lng": -86.581
    },
    "country": "us",
    "city": "Hayneville",
    "state": "al"
  },
  {
    "url": "http://www.bfro.net/GDB/show_report.asp?id=2170",
    "source": "BFRO",
    "source_url": "http://www.bfro.net",
    "source_reference": "2170",
    "name": "Bigfoot Report Class A Apr 2001",
    "class": "A",
    "location": "Humboldt County",
    "coordinates": {
      "lat": 42.72063,
      "lng": -94.22206
    },
    "country": "us",
    "city": "Humboldt",
    "state": "ia"
  },